     3.02           OBSERVATION DATA    M (MIXED)           RINEX VERSION / TYPE
BLANK OR G = GPS, R = GLONASS, C = BDS, E = GAL, J = QZSS, M = MIXEDCOMMENT             
HGO                 HITARGET            20211215 085134 UTC PGM / RUN BY / DATE 
ag68                                                        MARKER NAME         
                                                            MARKER NUMBER       
whoever             HITARGET                                OBSERVER / AGENCY   
13673215            iRTK5                                   REC # / TYPE / VERS 
1                   HITRTK5         NONE                    ANT # / TYPE        
 -2444707.6295  4793837.5439  3412511.5557                  APPROX POSITION XYZ 
------------------------------------------------------------COMMENT             
*** Antenna height is from mark to BOTTOM OF ANTENNA.       COMMENT             
------------------------------------------------------------COMMENT             
        1.5184        0.0000        0.0000                  ANTENNA: DELTA H/E/N
G   12 C1C C2W C2X C5X L1C L2W L2X L5X S1C S2W S2X S5X      SYS / # / OBS TYPES 
R    9 C1C C1P C2P L1C L1P L2P S1C S1P S2P                  SYS / # / OBS TYPES 
C    6 C1I C7I L1I L7I S1I S7I                              SYS / # / OBS TYPES 
E   12 C1X C5X C7X C8X L1X L5X L7X L8X S1X S5X S7X S8X      SYS / # / OBS TYPES 
J   12 C1C C1Z C2X C5X L1C L1Z L2X L5X S1C S1Z S2X S5X      SYS / # / OBS TYPES 
    10.000                                                  INTERVAL            
  2021    12    14     6    32   30.0000000     GPS         TIME OF FIRST OBS   
  2021    12    14     8    32   40.0000000     GPS         TIME OF LAST OBS    
     0                                                      RCV CLOCK OFFS APPL 
    18                                                      LEAP SECONDS        
                                                            END OF HEADER       
> 2021 12 14 06 32 30.0000000  0 34
G25  23141624.250    23141635.090    23141635.832    23141633.922   121610038.494    94761125.838    94761119.848    90812738.903          41.200          30.500          43.400          45.700  
G26  20740635.336    20740646.336    20740646.578    20740643.832   108992746.429    84929480.282    84929470.286    81390712.598          46.400          49.800          47.500          50.800  
G32  20935821.898    20935831.309    20935831.918    20935828.961   110018463.375    85728730.688    85728721.693    82156688.276          49.800          54.400          49.500          50.900  
G31  20831506.789    20831513.391    20831513.934                   109470290.904    85301567.536    85301571.541                          46.800          50.400          46.400                  
G03  23735880.516    23735891.258    23735892.289    23735890.664   124732867.993    97194506.295    97194502.306    93144727.556          39.500          37.400          41.300          44.900  
G29  23460700.367    23460709.688    23460709.582                   123286795.648    96067684.587    96067685.579                          42.000          30.900          41.800                  
G16  23794868.602    23794877.320                                   125042876.485    97436044.858                                          39.100          22.000                                  
R07  20292244.438    20292243.594    20292250.613   108625975.635   108625971.643    84486712.978          49.900          48.400          44.700  
R08  19577926.172    19577924.336    19577928.934   104838895.389   104838893.397    81541493.894          48.800          47.600          45.500  
R01  22483530.875    22483529.168    22483537.313   120187358.078   120187359.085    93479082.292          43.700          41.800          35.600  
R09  22112524.953    22112524.113    22112529.387   118079607.870   118079640.873    91839502.874          47.500          45.800          42.400  
R10  19857722.883    19857721.520                   105852802.064   105852833.070                          49.500          48.300                  
C21  24906134.703                   129692785.260                          42.800                  
C16  36266490.680    36266490.824   188849137.626   146030118.884          48.600          47.700  
C14  22256546.242    22256543.098   115895680.001    89617938.801          46.300          49.300  
C10  38477120.836    38477119.441   200360468.709   154931420.213          39.700          40.300  
C09  36958162.672    36958159.191   192450853.698   148815197.530          44.500          47.300  
C07  37446929.680    37446924.328   194995986.741   150783265.288          42.600          44.800  
C05  39764861.078                   207066068.438                          32.000                  
C04  38652199.078    38652194.949   201272139.225   155636372.281          38.200          42.900  
C03  37106246.016    37106241.750   193221953.397   149411457.729          40.700          44.500  
C02  37824336.797    37824331.660   196961248.562   152302909.599          36.500          41.800  
C01  37906413.648    37906412.086   197388646.981   152633412.547          40.900          44.900  
C24  22905244.867                   119273630.586                          48.300                  
C26  22106596.820                   115114858.062                          48.500                  
C06  36061762.445    36061757.031   187783060.582   145205749.437          46.200          47.000  
E24  26205709.633    26205715.406    26205712.371    26205715.207   137711932.195   102836855.723   105519543.718   104178206.019          43.300          44.100          46.000          49.100  
E09  22445353.461    22445358.676    22445355.664    22445358.527   117951128.252    88080407.237    90378145.433    89229279.133          47.600          50.000          51.000          53.800  
E01  25546778.625    25546783.680    25546780.668    25546783.453   134249224.378   100251064.257   102866297.867   101558685.858          46.500          48.300          49.800          52.500  
E04  24211747.211    24211751.348    24211748.973    24211751.527   127233589.159    95012111.424    97490677.717    96251401.864          48.900          49.500          51.500          53.900  
J02  19445148.977    19445145.859    19445158.566    19445157.809   204369858.803   204369920.813   159249287.384   152613913.373          47.200          48.700                          51.400  
J03  18959783.547    18959780.527    18959797.359    18959797.719   199268703.484   199268699.351   155274310.783   148804568.194          41.400          41.300                          43.600  
J01  18559207.781    18559205.547    18559216.688    18559216.828   195058585.954   195058624.314   151993731.795   145660668.713          43.800          43.200                          47.600  
J07  18580531.773    18580526.758    18580541.566    18580541.570   195282656.897   195282741.803   152168368.307   145828005.601          38.900          46.100                          49.100  
> 2021 12 14 06 32 40.0000000  0 34
G25  23147363.672    23147373.984    23147374.703    23147372.723   121640196.134    94784625.296    94784619.306    90835259.210          41.200          30.200          43.000          45.800  
G26  20736576.313    20736587.410    20736587.410    20736584.820   108971415.651    84912858.908    84912848.912    81374783.771          46.700          49.900          47.500          50.900  
G32  20937708.258    20937717.539    20937718.133    20937715.262   110028375.884    85736454.720    85736445.725    82164090.465          49.800          54.400          49.100          51.300  
G31  20831418.305    20831425.566    20831426.035                   109469828.556    85301207.264    85301211.268                          47.000          50.700          46.400                  
G03  23731785.063    23731795.801    23731796.582    23731795.266   124711345.870    97177735.828    97177731.828    93128655.846          37.300          36.400          42.600          45.700  
G29  23458618.773    23458627.738    23458628.047                   123275857.215    96059161.153    96059162.143                          42.200          31.000          42.000                  
G16  23787080.125    23787088.668                                   125001946.528    97404151.393                                          37.600          21.500                                  
R07  20296765.883    20296764.770    20296771.730   108650177.175   108650173.189    84505536.389          49.800          48.500          44.600  
R08  19575111.273    19575110.219    19575114.965   104823825.489   104823823.506    81529772.868          48.700          47.600          45.600  
R01  22475694.406    22475692.902    22475700.773   120145468.310   120145469.323    93446501.383          44.300          42.100          36.600  
R09  22117649.000    22117648.211    22117653.273   118106969.834   118107002.852    91860784.401          47.900          46.400          43.100  
R10  19859053.820    19859052.055                   105859894.536   105859925.527                          49.900          47.800                  
C21  24911625.305                   129721375.512                          42.200                  
C16  36265113.727    36265113.543   188841967.024   146024574.130          47.600          47.400  
C14  22254942.203    22254939.285   115887329.101    89611481.354          45.600          49.600  
C10  38474365.047    38474363.488   200346118.163   154920323.468          39.900          41.000  
C09  36956483.945    36956480.500   192442111.484   148808437.486          44.600          46.800  
C07  37444151.000    37444145.777   194981515.539   150772075.247          42.400          45.300  
C05  39764259.234    39764255.859   207062933.181   160114183.133          34.300          38.800  
C04  38651516.438    38651512.668   201268586.105   155633624.787          37.900          42.800  
C03  37105607.977    37105603.738   193218631.145   149408888.761          40.600          44.100  
C02  37823702.539    37823696.973   196957942.889   152300353.437          36.700          42.600  
C01  37905754.383    37905752.941   197385213.673   152630757.690          40.900          44.700  
C24  22902754.680                   119260663.214                          48.000                  
C26  22108239.031                   115123409.721                          49.500                  
C06  36060306.992    36060301.539   187775481.621   145199888.900          46.000          48.000  
E24  26200825.906    26200831.527    26200828.531    26200831.457   137686267.647   102817690.676   105499878.717   104158790.994          44.000          43.800          45.900          48.600  
E09  22441972.906    22441977.992    22441975.066    22441977.930   117933363.101    88067141.054    90364533.173    89215839.909          48.000          50.000          51.300          54.300  
E01  25550287.813    25550292.891    25550289.797    25550292.645   134267665.431   100264835.179   102880428.022   101572636.397          46.400          48.200          49.400          52.500  
E04  24213403.492    24213407.676    24213405.262    24213407.816   127242292.895    95018610.960    97497346.812    96257986.178          48.500          50.300          51.600          54.500  
J02  19445408.078    19445404.633    19445417.090    19445416.684   204372580.522   204372642.532   159251408.209   152615945.826          47.200          48.600                          51.400  
J03  18959155.750    18959152.234    18959169.219    18959169.348   199262102.640   199262098.506   155269167.320   148799639.063          40.900          41.700                          43.200  
J01  18558493.984    18558491.723    18558502.898    18558503.039   195051083.731   195051122.100   151987885.911   145655066.408          44.400          43.200                          47.300  
J07  18580195.094    18580189.766    18580204.758    18580204.680   195279116.973   195279201.878   152165609.933   145825362.153          38.800          46.000                          49.100  
> 2021 12 14 06 32 50.0000000  0 34
G25  23153100.516    23153110.898    23153111.328    23153109.398   121670342.684    94808116.123    94808110.126    90857771.247          41.400          29.700          43.300          45.900  
G26  20732521.836    20732532.492    20732532.375    20732529.965   108950106.942    84896254.730    84896244.733    81358871.445          46.900          49.900          47.600          51.000  
G32  20939597.828    20939607.059    20939607.500    20939604.855   110038305.499    85744192.079    85744183.076    82171505.431          49.800          54.400          48.600          50.600  
G31  20831329.094    20831335.703    20831336.063                   109469356.589    85300839.496    85300843.500                          46.900          50.500          46.800                  
G03  23727694.031    23727704.707    23727705.129    23727704.258   124689847.805    97160984.106    97160980.102    93112602.120          37.600          35.800          42.300          45.400  
G29  23456542.633    23456551.367    23456551.051                   123264943.272    96050656.787    96050657.783                          42.200          32.100          42.400                  
G16  23779288.875    23779297.629                                   124961007.172    97372250.651                                          39.300          21.800                                  
R07  20301293.461    20301292.621    20301299.449   108674413.903   108674409.926    84524387.166          50.000          48.700          44.900  
R08  19572306.242    19572305.148    19572309.879   104808804.608   104808802.618    81518089.956          48.600          47.100          45.600  
R01  22467857.297    22467856.848    22467864.230   120103577.824   120103578.824    93413919.906          44.600          42.000          36.300  
R09  22122767.555    22122767.105    22122772.035   118134303.376   118134336.388    91882043.816          48.800          46.400          42.600  
R10  19860386.195    19860384.563                   105866996.896   105867027.899                          49.600          48.900                  
C21  24917112.641                   129749951.765                          41.600                  
C16  36263730.422    36263730.555   188834765.249   146019005.262          47.200          47.600  
C14  22253343.219    22253340.004   115879001.271    89605041.765          46.100          49.800  
C10  38471605.125    38471603.480   200331744.996   154909209.235          39.900          41.000  
C09  36954798.172    36954794.773   192433334.073   148801650.237          44.600          47.700  
C07  37441367.867    37441362.574   194967023.946   150760869.437          42.400          45.000  
C05  39763650.664    39763647.527   207059765.873   160111733.979          34.800          38.900  
C04  38650828.711    38650824.355   201265001.679   155630853.081          38.000          43.300  
C03  37104963.875    37104959.707   193215277.462   149406295.484          40.700          44.600  
C02  37823061.930    37823056.090   196954606.018   152297773.177          36.600          42.000  
C01  37905089.000    37905087.430   197381749.102   152628078.663          40.900          44.300  
C24  22900263.375                   119247690.098                          48.400                  
C26  22109878.469                   115131946.657                          48.600                  
C06  36058844.984    36058839.629   187767870.387   145194003.419          46.100          48.000  
E24  26195940.930    26195946.488    26195943.313    26195946.359   137660596.579   102798520.755   105480208.701   104139371.023          43.700          44.100          44.900          48.100  
E09  22438591.352    22438596.609    22438593.801    22438596.582   117915593.934    88053871.869    90350917.836    89202397.650          47.900          49.000          50.600          53.900  
E01  25553793.703    25553798.750    25553795.707    25553798.535   134286089.083   100278593.102   102894544.849   101586573.771          45.800          48.200          49.300          52.100  
E04  24215060.313    24215064.590    24215062.234    24215064.703   127250999.863    95025112.910    97504018.379    96264572.942          48.400          50.000          51.300          53.600  
J02  19445663.750    19445660.770    19445673.285    19445672.559   204375268.773   204375330.783   159253502.949   152617953.297          47.000          49.100                          51.700  
J03  18958524.578    18958521.230    18958537.777    18958538.035   199255468.781   199255464.647   155263998.138   148794685.277          41.100          41.900                          43.200  
J01  18557777.805    18557776.137    18557787.500    18557787.523   195043559.931   195043598.299   151982023.205   145649447.979          43.600          43.400                          47.000  
J07  18579855.297    18579850.137    18579864.691    18579864.848   195275545.666   195275630.571   152162827.096   145822695.271          39.500          46.000                          49.000  
> 2021 12 14 06 33  0.0000000  0 34
G25  23158835.781    23158845.887    23158846.512    23158844.660   121700481.464    94831600.882    94831594.885    90880277.469          41.100          29.700          42.600          45.700  
G26  20728471.773    20728482.473    20728482.285    20728479.805   108928823.708    84879670.401    84879660.404    81342978.128          46.700          49.900          47.600          51.100  
G32  20941491.391    20941500.430    20941500.926    20941498.375   110048255.677    85751945.457    85751936.462    82178935.751          49.800          54.400          49.100          50.300  
G31  20831238.477    20831245.063    20831245.086                   109468878.482    85300466.952    85300470.956                          47.000          50.600          47.800                  
G03  23723609.195    23723619.059    23723619.711    23723618.574   124668377.333    97144253.868    97144249.875    93096568.977          39.400          35.700          41.700          45.400  
G29  23454470.977    23454479.539    23454479.547                   123254057.393    96042174.321    96042175.325                          42.500          32.300          41.500                  
G16  23771497.883    23771506.504                                   124920061.938    97340345.317                                          39.700          22.200                                  
R07  20305828.641    20305827.500    20305834.496   108698689.264   108698685.271    84543267.991          50.100          48.400          44.600  
R08  19569511.414    19569510.148    19569514.598   104793836.391   104793834.399    81506448.007          49.200          47.500          45.900  
R01  22460021.594    22460020.711    22460028.238   120061690.013   120061691.015    93381340.515          43.700          41.700          36.600  
R09  22127882.078    22127880.965    22127885.852   118161611.903   118161644.906    91903283.770          48.100          46.700          42.200  
R10  19861720.539    19861719.273                   105874112.509   105874143.528                          49.900          48.400                  
C21  24922598.852                   129778517.392                          42.600                  
C16  36262342.148    36262342.398   188827535.751   146013414.956          47.800          47.700  
C14  22251748.602    22251745.816   115870699.924    89598622.638          46.600          49.500  
C10  38468841.500    38468839.531   200317352.563   154898080.088          40.300          40.500  
C09  36953106.523    36953103.141   192424525.037   148794838.525          44.700          47.600  
C07  37438582.000    37438576.395   194952515.476   150749650.567          42.900          44.300  
C05  39763037.063    39763033.715   207056570.901   160109263.415          34.300          39.400  
C04  38650135.141    38650130.480   201261389.356   155628059.807          37.800          42.100  
C03  37104314.367    37104310.113   193211895.756   149403680.535          40.600          44.000  
C02  37822415.563    37822409.879   196951241.424   152295171.461          36.600          43.000  
C01  37904418.227    37904416.703   197378256.724   152625378.133          40.900          45.000  
C24  22897771.711                   119234714.603                          48.600                  
C26  22111515.555                   115140472.283                          48.300                  
C06  36057378.367    36057372.336   187760230.389   145188095.685          45.500          47.700  
E24  26191055.070    26191060.777    26191057.645    26191060.652   137634922.411   102779348.504   105460536.300   104119948.696          43.400          44.400          45.300          48.600  
E09  22435210.125    22435215.227    22435212.258    22435215.098   117897824.228    88040602.286    90337302.086    89188954.982          48.200          49.500          51.200          53.900  
E01  25557297.047    25557301.949    25557299.066    25557301.805   134304498.740   100292340.570   102908650.947   101600500.559          46.500          48.300          49.000          52.300  
E04  24216718.523    24216722.785    24216720.371    24216722.871   127259713.530    95031619.864    97510695.084    96271164.771          48.600          50.200          52.200          54.200  
J02  19445916.727    19445913.289    19445926.000    19445925.430   204377926.982   204377988.993   159255574.286   152619938.319          47.300          49.600                          51.000  
J03  18957890.336    18957887.535    18957903.762    18957904.184   199248805.330   199248801.196   155258805.891   148789709.380          41.400          42.700                          43.500  
J01  18557060.320    18557058.520    18557069.531    18557069.828   195036018.034   195036056.396   151976146.399   145643816.043          44.100          43.900                          47.000  
J07  18579512.711    18579507.832    18579522.414    18579522.488   195271946.319   195272031.225   152160022.404   145820007.448          40.400          46.100                          49.300  
> 2021 12 14 06 33 10.0000000  0 34
G25  23164570.070    23164579.656    23164580.777    23164578.531   121730613.313    94855080.241    94855074.239    90902778.522          40.800          30.000          42.500          45.800  
G26  20724426.461    20724437.398    20724437.527    20724434.883   108907566.907    84863106.680    84863096.683    81327104.562          46.800          49.900          47.800          51.200  
G32  20943389.047    20943398.191    20943398.805    20943395.871   110058227.299    85759715.547    85759706.544    82186382.084          50.000          54.400          48.900          50.600  
G31  20831146.242    20831152.887    20831153.133                   109468395.138    85300090.318    85300094.322                          47.200          50.600          47.000                  
G03  23719528.570    23719538.668    23719539.309    23719538.324   124646935.457    97127545.911    97127541.914    93080557.194          37.900          35.700          41.400          45.100  
G29  23452405.273    23452413.492    23452413.695                   123243200.517    96033714.431    96033715.423                          42.900          31.900          41.800                  
G16  23763704.875    23763714.055                                   124879111.837    97308436.187                                          39.600          21.800                                  
R07  20310370.469    20310369.699    20310376.586   108723004.074   108723000.089    84562179.498          49.900          48.600          45.400  
R08  19566725.648    19566724.711    19566729.492   104778921.943   104778919.952    81494847.879          48.700          47.300          46.100  
R01  22452186.398    22452184.902    22452192.996   120019806.267   120019807.271    93348764.282          43.400          42.100          36.800  
R09  22132991.141    22132990.402    22132995.219   118188896.104   118188929.103    91924504.825          48.500          46.000          40.800  
R10  19863058.703    19863057.141                   105881241.914   105881272.919                          49.800          48.700                  
C21  24928082.367                   129807073.107                          42.000                  
C16  36260948.789    36260948.758   188820279.409   146007803.893          47.900          47.700  
C14  22250159.813    22250157.031   115862425.971    89592224.696          45.700          50.000  
C10  38466073.867    38466071.953   200302941.785   154886936.776          39.000          40.300  
C09  36951408.797    36951405.527   192415685.186   148788002.986          44.500          46.800  
C07  37435792.219    37435787.012   194937990.983   150738419.320          43.300          44.300  
C05  39762417.766    39762415.098   207053349.194   160106772.201          34.800          38.800  
C04  38649435.539    38649431.426   201257749.988   155625245.621          37.900          42.700  
C03  37103659.508    37103655.691   193208486.946   149401044.631          40.800          43.900  
C02  37821765.188    37821758.719   196947849.972   152292548.979          36.800          42.200  
C01  37903742.750    37903740.789   197374737.386   152622656.763          40.900          44.500  
C24  22895279.070                   119221737.634                          48.100                  
C26  22113151.320                   115148987.434                          48.600                  
C06  36055905.609    36055899.898   187752562.479   145182166.379          46.000          47.400  
E24  26186169.047    26186174.828    26186171.504    26186174.590   137609246.097   102760174.666   105440862.269   104100524.768          43.900          44.000          45.200          48.500  
E09  22431828.570    22431833.816    22431830.988    22431833.742   117880054.972    88027333.035    90323686.682    89175512.657          47.700          50.200          50.900          54.200  
E01  25560797.500    25560802.695    25560799.742    25560802.578   134322895.211   100306078.192   102922746.954   101614417.369          46.300          48.000          49.200          52.100  
E04  24218378.156    24218382.484    24218379.977    24218382.477   127268434.805    95038132.502    97517377.616    96277762.357          48.300          49.900          51.300          53.900  
J02  19446166.969    19446163.422    19446176.148    19446175.508   204380556.016   204380618.026   159257622.885   152621901.563          47.000          48.900                          51.000  
J03  18957253.609    18957250.316    18957266.926    18957267.363   199242113.148   199242109.015   155253591.261   148784712.031          42.200          41.700                          43.200  
J01  18556341.148    18556339.133    18556350.188    18556350.531   195028458.899   195028497.268   151970256.162   145638171.229          44.100          43.100                          47.300  
J07  18579167.828    18579162.398    18579177.113    18579177.320   195268319.964   195268404.869   152157196.681   145817299.461          39.700          46.300                          49.300  
> 2021 12 14 06 33 20.0000000  0 34
G25  23170302.539    23170312.438    23170313.035    23170311.152   121760738.964    94878554.763    94878548.766    90925274.943          40.500          29.900          43.100          45.600  
G26  20720387.031    20720397.684    20720397.543    20720395.063   108886337.555    84846564.334    84846554.345    81311251.483          46.400          50.000          47.600          50.900  
G32  20945290.859    20945299.988    20945300.453    20945297.680   110068221.323    85767503.094    85767494.099    82193845.157          50.100          54.500          48.700          50.900  
G31  20831053.266    20831059.961    20831060.285                   109467907.494    85299710.339    85299714.343                          47.300          50.500          47.000                  
G03  23715454.453    23715464.020    23715464.742    23715463.746   124625523.118    97110860.987    97110856.990    93064567.480          39.300          35.500          41.600          46.000  
G29  23450344.648    23450353.410    23450353.520                   123232373.643    96025277.920    96025278.909                          42.500          31.600          41.600                  
G16  23755910.836    23755920.121                                   124838157.829    97276523.998                                          39.200          22.300                                  
R07  20314920.266    20314919.543    20314926.402   108747359.186   108747355.186    84581122.351          50.200          48.800          44.700  
R08  19563951.305    19563949.746    19563954.574   104764062.346   104764060.349    81483290.420          49.000          47.400          45.600  
R01  22444353.133    22444351.051    22444358.863   119977927.549   119977928.541    93316191.966          43.100          42.000          36.700  
R09  22138096.344    22138095.551    22138100.191   118216157.037   118216190.033    91945707.756          48.100          46.100          40.900  
R10  19864398.820    19864397.195                   105888386.287   105888417.285                          50.000          47.800                  
C21  24933564.305                   129835619.872                          41.300                  
C16  36259550.461    36259550.578   188812997.208   146002172.831          48.400          47.200  
C14  22248576.570    22248573.523   115854180.394    89585848.688          45.800          50.300  
C10  38463303.031    38463300.699   200288513.709   154875780.077          39.400          41.100  
C09  36949705.625    36949702.074   192406815.479   148781144.365          45.200          47.200  
C07  37433000.086    37432994.855   194923451.432   150727176.426          42.700          45.000  
C05  39761794.852    39761791.621   207050101.690   160104261.020          33.700          39.900  
C04  38648732.031    38648727.664   201254084.549   155622411.268          38.100          43.100  
C03  37103000.086    37102996.113   193205052.028   149398388.539          40.700          44.100  
C02  37821107.719    37821102.215   196944432.686   152289906.536          36.900          42.500  
C01  37903061.828    37903060.023   197371192.072   152619915.300          40.900          44.600  
C24  22892786.820                   119208760.116                          48.300                  
C26  22114784.305                   115157493.032                          48.800                  
C06  36054427.758    36054422.086   187744867.652   145176216.248          46.400          47.900  
E24  26181282.750    26181288.520    26181285.207    26181288.320   137583568.606   102740999.947   105421187.342   104081099.938          44.200          44.000          45.100          48.200  
E09  22428447.633    22428452.762    22428449.953    22428452.633   117862287.188    88014064.885    90310072.407    89162071.441          47.300          49.500          51.000          53.900  
E01  25564296.219    25564301.125    25564298.246    25564300.996   134341279.435   100319806.673   102936833.570   101628324.919          46.500          48.000          49.200          52.300  
E04  24220039.391    24220043.719    24220041.188    24220043.723   127277164.625    95044651.521    97524066.692    96284366.403          48.200          49.900          51.200          53.900  
J02  19446414.289    19446410.984    19446423.703    19446423.098   204383156.871   204383218.882   159259649.526   152623843.768          47.300          48.600                          51.200  
J03  18956614.547    18956610.707    18956627.219    18956627.723   199235393.311   199235389.178   155248355.076   148779694.031          41.700          42.000                          42.900  
J01  18555620.367    18555618.586    18555629.684    18555629.695   195020883.556   195020921.916   151964353.302   145632514.325          43.200          42.600                          47.300  
J07  18578820.328    18578814.988    18578829.574    18578829.746   195264667.511   195264752.416   152154350.609   145814571.979          39.700          45.900                          48.800  
> 2021 12 14 06 33 30.0000000  0 34
G25  23176034.219    23176044.395    23176044.867    23176042.984   121790860.380    94902025.987    94902019.990    90947768.197          41.100          30.200          43.100          45.300  
G26  20716352.609    20716363.285    20716363.438    20716360.813   108865137.483    84830044.810    84830034.813    81295420.273          46.500          50.000          47.900          50.300  
G32  20947197.289    20947206.332    20947206.840    20947204.066   110078239.601    85775309.535    85775300.540    82201326.329          49.800          54.300          49.400          50.400  
G31  20830960.164    20830966.645    20830967.191                   109467417.311    85299328.377    85299332.382                          47.300          50.500          46.900                  
G03  23711386.148    23711395.281    23711396.047    23711395.137   124604142.354    97094200.654    97094196.643    93048601.326          38.100          35.700          42.100          45.600  
G29  23448290.750    23448298.770    23448299.422                   123221578.756    96016866.328    96016867.329                          43.000          32.200          41.800                  
G16  23748117.672    23748126.574                                   124797201.866    97244610.297                                          39.200          22.200                                  
R07  20319477.703    20319477.094    20319483.836   108771756.221   108771752.229    84600097.813          50.000          48.600          44.600  
R08  19561186.555    19561185.395    19561190.168   104749259.082   104749257.092    81471776.777          49.200          47.800          45.500  
R01  22436519.289    22436517.836    22436526.117   119936055.925   119936056.921    93283625.162          44.000          42.300          36.900  
R09  22143197.352    22143196.516    22143201.352   118243396.536   118243429.525    91966894.035          48.200          46.100          41.500  
R10  19865742.852    19865740.633                   105895546.924   105895577.930                          50.200          48.200                  
C21  24939045.445                   129864159.352                          41.300                  
C16  36258147.391    36258147.363   188805690.950   145996523.184          48.500          47.600  
C14  22246998.828    22246995.898   115845965.023    89579496.045          46.700          50.400  
C10  38460528.938    38460527.242   200274070.104   154864611.366          39.200          41.200  
C09  36947996.703    36947993.566   192397917.772   148774264.105          45.600          47.300  
C07  37430205.109    37430200.152   194908898.655   150715923.304          42.800          44.900  
C05  39761166.617    39761163.000   207046830.179   160101731.299          34.300          39.100  
C04  38648023.313    38648019.164   201250394.826   155619558.138          38.200          42.800  
C03  37102335.453    37102331.539   193201592.744   149395713.602          40.700          44.600  
C02  37820447.180    37820441.605   196940991.284   152287245.433          36.800          42.400  
C01  37902376.289    37902374.629   197367622.568   152617155.139          41.100          45.000  
C24  22890294.969                   119195783.821                          47.900                  
C26  22116416.352                   115165990.807                          48.000                  
C06  36052945.406    36052939.836   187737147.653   145170246.656          46.800          47.700  
E24  26176396.398    26176402.395    26176399.102    26176402.137   137557891.799   102721825.734   105401512.929   104061675.628          44.200          44.000          46.000          48.500  
E09  22425067.063    22425072.277    22425069.418    22425072.168   117844522.705    88000799.200    90296460.666    89148632.729          48.200          49.800          50.900          54.100  
E01  25567792.508    25567797.508    25567794.789    25567797.410   134359653.160   100333527.313   102950912.140   101642224.522          45.800          48.100          49.400          52.000  
E04  24221702.617    24221706.809    24221704.305    24221706.914   127285904.816    95051178.282    97530763.716    96290978.295          48.600          49.900          51.700          53.700  
J02  19446659.266    19446656.145    19446668.516    19446668.039   204385731.366   204385793.377   159261655.634   152625766.287          47.300          48.500                          51.200  
J03  18955972.375    18955968.953    18955985.746    18955986.160   199228647.560   199228643.427   155243098.709   148774656.688          41.700          41.700                          43.300  
J01  18554898.523    18554896.090    18554906.813    18554907.262   195013293.795   195013332.163   151958439.204   145626846.647          43.200          43.300                          46.700  
J07  18578470.125    18578465.500    18578480.094    18578480.297   195260990.827   195261075.732   152151485.673   145811826.409          39.400          45.900                          49.000  
> 2021 12 14 06 33 40.0000000  0 34
G25  23181765.359    23181775.242    23181776.160    23181773.973   121820977.113    94925493.557    94925487.571    90970257.963          41.400          29.800          43.500          45.100  
G26  20712324.125    20712334.707    20712334.848    20712331.988   108843966.521    84813547.965    84813537.968    81279610.805          46.600          50.100          47.800          51.100  
G32  20949107.805    20949117.500    20949117.965    20949115.148   110088281.904    85783134.706    85783125.703    82208825.448          49.600          54.500          49.200          50.400  
G31  20830866.352    20830872.707    20830873.242                   109466924.385    85298944.277    85298948.274                          46.800          50.300          46.700                  
G03  23707323.375    23707332.844    23707333.625    23707332.414   124582792.803    97077564.651    97077560.662    93032658.499          39.400          36.200          41.600          45.100  
G29  23446242.203    23446250.828    23446250.922                   123210815.617    96008479.480    96008480.470                          42.100          31.400          41.700                  
G16  23740324.031    23740332.453                                   124756243.905    97212695.053                                          38.800          21.100                                  
R07  20324043.523    20324042.613    20324049.395   108796195.188   108796191.203    84619105.888          49.600          48.400          44.900  
R08  19558432.414    19558431.465    19558436.441   104734512.604   104734510.620    81460307.297          48.700          47.000          45.400  
R01  22428687.430    22428685.578    22428694.316   119894191.195   119894192.191    93251063.712          43.500          41.800          36.500  
R09  22148294.508    22148293.762    22148298.266   118270614.090   118270647.085    91988063.252          48.200          46.000          41.400  
R10  19867089.055    19867087.090                   105902724.075   105902755.080                          50.300          48.500                  
C21  24944524.992                   129892691.372                          41.300                  
C16  36256739.820    36256739.652   188798360.509   145990854.819          47.100          47.600  
C14  22245427.266    22245423.914   115837779.675    89573166.615          46.600          50.300  
C10  38457752.227    38457750.570   200259610.684   154853430.438          39.200          41.400  
C09  36946282.953    36946279.367   192388991.829   148767362.005          45.400          47.500  
C07  37427408.086    37427402.848   194894332.435   150704659.790          41.900          44.500  
C05  39760533.508    39760530.570   207043534.475   160099182.854          35.500          38.700  
C04  38647309.969    38647305.719   201246680.631   155616686.099          38.100          43.300  
C03  37101666.883    37101662.559   193198108.902   149393019.684          40.600          44.300  
C02  37819781.492    37819776.074   196937525.608   152284565.560          36.800          42.500  
C01  37901685.867    37901684.293   197364028.669   152614376.104          40.800          44.900  
C24  22887803.148                   119182808.509                          48.000                  
C26  22118046.484                   115174480.571                          48.800                  
C06  36051458.016    36051452.281   187729402.364   145164257.515          46.200          47.100  
E24  26171510.883    26171516.297    26171513.078    26171516.066   137532215.482   102702651.892   105381838.895   104042251.690          44.600          44.100          45.900          49.200  
E09  22421687.320    22421692.395    22421689.508    22421692.285   117826761.432    87987535.920    90282851.376    89135196.443          48.000          49.700          50.600          54.200  
E01  25571286.742    25571291.934    25571289.063    25571291.754   134378016.143   100347239.930   102964982.477   101656116.002          46.300          48.300          49.200          52.000  
E04  24223367.711    24223371.945    24223369.414    24223372.055   127294655.192    95057712.650    97537468.543    96297597.895          49.100          49.800          51.100          54.000  
J02  19446901.625    19446898.645    19446911.059    19446910.543   204388279.240   204388341.251   159263640.991   152627668.929          47.400          48.500                          51.200  
J03  18955328.406    18955324.184    18955341.000    18955341.418   199221875.769   199221871.635   155237822.046   148769599.893          41.400          42.600                          43.200  
J01  18554174.648    18554172.859    18554183.965    18554184.016   195005689.386   195005727.754   151952513.691   145621168.027          44.100          42.600                          46.800  
J07  18578118.070    18578113.094    18578127.957    18578128.023   195257289.608   195257374.508   152148601.601   145809062.516          38.700          46.000                          49.500  
> 2021 12 14 06 33 50.0000000  0 34
G25  23187495.617    23187506.395    23187507.227    23187504.820   121851092.855    94948960.379    94948954.385    90992746.993          41.300          29.400          43.100          44.700  
G26  20708301.414    20708312.176    20708312.262    20708309.527   108822828.483    84797076.780    84797066.783    81263825.922          47.500          50.000          48.100          50.600  
G32  20951024.188    20951033.602    20951033.969    20951031.461   110098352.066    85790981.581    85790972.578    82216345.369          49.600          54.400          48.500          50.100  
G31  20830772.523    20830779.250    20830779.945                   109466432.486    85298560.982    85298564.986                          46.800          50.400          47.200                  
G03  23703267.180    23703276.969    23703277.715    23703276.281   124561478.473    97060956.070    97060952.081    93016741.957          39.600          37.100          42.400          44.700  
G29  23444201.070    23444209.613    23444209.484                   123200088.074    96000120.397    96000121.387                          42.100          31.900          42.200                  
G16  23732529.773    23732538.957                                   124715287.814    97180781.243                                          39.400          22.000                                  
R07  20328616.578    20328616.547    20328623.156   108820679.612   108820675.620    84638149.322          49.900          48.300          45.300  
R08  19555690.203    19555689.117    19555693.805   104719826.609   104719824.619    81448884.854          49.100          47.200          45.500  
R01  22420858.867    22420856.625    22420864.801   119852337.642   119852338.642    93218510.944          44.000          42.300          36.200  
R09  22153388.094    22153386.918    22153392.027   118297813.686   118297846.681    92009218.494          48.900          46.100          42.100  
R10  19868438.727    19868436.945                   105909921.454   105909952.473                          49.600          48.300                  
C21  24950003.141                   129921219.497                          42.600                  
C16  36255328.063    36255327.789   188791009.622   145985170.650          48.400          47.600  
C14  22243861.414    22243858.520   115829628.157    89566863.345          46.300          50.400  
C10  38454973.281    38454971.781   200245139.318   154842240.277          39.600          41.400  
C09  36944564.008    36944560.684   192380041.446   148760441.003          44.700          47.600  
C07  37424608.930    37424603.617   194879756.558   150693388.796          42.500          45.000  
C05  39759896.813    39759893.359   207040218.315   160096618.611          34.500          38.900  
C04  38646592.531    38646588.563   201242945.749   155613798.051          37.900          42.200  
C03  37100993.492    37100989.773   193194604.296   149390309.697          40.500          43.600  
C02  37819112.063    37819106.484   196934039.420   152281869.823          37.000          42.200  
C01  37900992.063    37900990.180   197360414.156   152611581.136          41.000          44.500  
C24  22885312.203                   119169837.960                          47.500                  
C26  22119676.141                   115182966.019                          49.300                  
C06  36049966.211    36049960.754   187721635.588   145158251.754          45.800          47.500  
E24  26166625.656    26166631.125    26166627.871    26166630.840   137506543.499   102683481.281   105362168.178   104022831.028          44.600          44.200          45.200          48.400  
E09  22418308.891    22418313.891    22418311.051    22418313.762   117809007.189    87974277.881    90269247.477    89121765.476          47.900          50.100          51.300          54.200  
E01  25574779.906    25574784.980    25574782.117    25574784.805   134396372.112   100360947.314   102979047.445   101670002.182          46.500          47.800          49.100          51.700  
E04  24225035.633    24225039.738    24225037.129    24225039.848   127303419.554    95064257.460    97544184.092    96304228.070          48.100          49.900          51.100          53.700  
J02  19447141.672    19447139.000    19447151.488    19447151.027   204390804.322   204390866.333   159265608.595   152629554.545          47.500          48.500                          51.000  
J03  18954681.773    18954678.332    18954695.004    18954695.215   199215081.705   199215077.571   155232528.033   148764526.469          42.000          42.200                          42.900  
J01  18553450.203    18553447.957    18553459.285    18553459.414   194998074.239   194998112.607   151946579.814   145615481.393          43.600          43.100                          46.800  
J07  18577764.336    18577758.848    18577773.578    18577773.516   195253567.788   195253652.694   152145701.488   145806283.244          39.700          46.000                          48.800  
> 2021 12 14 06 34  0.0000000  0 34
G25  23193227.203    23193237.430    23193238.160    23193235.836   121881209.576    94972427.939    94972421.953    91015236.754          40.400          29.200          43.400          44.700  
G26  20704285.477    20704296.496    20704296.203    20704293.742   108801725.455    84780632.871    84780622.875    81248067.177          46.300          49.900          47.300          51.000  
G32  20952946.398    20952955.609    20952956.254    20952953.418   110108452.091    85798851.725    85798842.722    82223887.591          49.800          54.400          48.900          50.700  
G31  20830679.641    20830686.363    20830686.543                   109465943.569    85298180.004    85298184.009                          47.000          50.400          47.000                  
G03  23699217.570    23699228.047    23699228.449    23699227.258   124540201.429    97044376.547    97044372.542    93000853.236          39.400          37.700          42.000          44.300  
G29  23442166.719    23442175.449    23442175.695                   123189398.343    95991790.725    95991791.714                          42.500          31.600          42.500                  
G16  23724736.867    23724745.859                                   124674335.554    97148870.437                                          38.700          21.500                                  
R07  20333200.242    20333199.492    20333205.984   108845211.504   108845207.512    84657229.675          50.100          49.100          44.700  
R08  19552958.867    19552958.336    19552963.039   104705203.318   104705201.336    81437511.186          48.600          47.400          45.300  
R01  22413030.672    22413029.750    22413037.516   119810497.306   119810498.314    93185968.473          44.900          41.800          36.200  
R09  22158479.188    22158477.898    22158482.715   118324997.177   118325030.174    92030361.202          49.000          46.400          42.300  
R10  19869793.578    19869791.336                   105917140.692   105917171.695                          50.300          48.800                  
C21  24955481.367                   129949745.715                          42.700                  
C16  36253912.922    36253912.883   188783640.308   145979472.228          48.000          46.500  
C14  22242303.125    22242300.027   115821512.546    89560587.843          46.200          50.400  
C10  38452192.141    38452190.496   200230658.119   154831042.495          39.700          41.600  
C09  36942840.727    36942837.387   192371068.628   148753502.649          45.500          47.700  
C07  37421807.969    37421802.910   194865173.021   150682111.888          42.600          44.700  
C05  39759255.820    39759253.094   207036883.756   160094040.123          34.500          39.000  
C04  38645871.781    38645867.797   201239192.152   155610895.542          38.100          43.600  
C03  37100317.477    37100312.840   193191080.939   149387585.224          40.900          43.400  
C02  37818439.180    37818433.324   196930534.739   152279159.789          36.600          43.000  
C01  37900294.570    37900292.547   197356781.024   152608771.772          41.100          44.100  
C24  22882823.047                   119156874.159                          48.000                  
C26  22121305.406                   115191449.128                          49.500                  
C06  36048471.242    36048465.395   187713849.314   145152230.920          45.300          46.700  
E24  26161741.406    26161747.199    26161743.918    26161746.836   137480877.864   102664315.417   105342502.335   104003415.171          44.000          44.700          46.000          48.900  
E09  22414932.063    22414937.230    22414934.258    22414937.004   117791262.069    87961026.658    90255650.571    89108341.409          47.700          49.900          51.200          53.900  
E01  25578272.086    25578277.008    25578274.172    25578276.863   134414723.053   100374650.944   102993108.562   101683884.549          45.900          48.500          49.600          52.200  
E04  24226706.430    24226710.742    24226708.035    24226710.699   127312199.896    95070814.205    97550911.882    96310870.342          48.300          50.600          51.300          54.400  
J02  19447380.055    19447377.109    19447389.922    19447389.176   204393308.588   204393370.605   159267559.977   152631424.612          47.400          48.600                          51.100  
J03  18954033.195    18954029.965    18954046.656    18954047.109   199208267.424   199208263.291   155227218.261   148759437.955          41.400          41.800                          43.300  
J01  18552724.703    18552722.902    18552733.809    18552734.098   194990450.309   194990488.677   151940639.079   145609788.194          43.500          43.100                          47.000  
J07  18577408.297    18577402.918    18577417.883    18577417.762   195249827.306   195249912.211   152142786.832   145803490.026          39.800          46.000                          49.400  
> 2021 12 14 06 34 10.0000000  0 34
G25  23198957.367    23198967.453    23198968.660    23198966.383   121911323.956    94995893.685    94995887.702    91037724.764          40.400          28.300          42.500          45.300  
G26  20700276.180    20700286.645    20700286.477    20700283.980   108780654.241    84764213.751    84764203.755    81232332.184          46.200          49.700          47.900          51.100  
G32  20954873.422    20954882.629    20954883.148    20954880.352   110118578.758    85806742.632    85806733.630    82231449.704          49.700          54.400          49.100          50.600  
G31  20830586.578    20830593.059    20830593.457                   109465454.480    85297798.899    85297802.911                          47.000          50.300          46.800                  
G03  23695176.023    23695185.707    23695186.418    23695184.789   124518958.431    97027823.569    97027819.562    92984989.975          39.000          37.500          42.600          44.700  
G29  23440139.133    23440147.680    23440148.000                   123178743.114    95983487.967    95983488.964                          42.100          32.000          41.700                  
G16  23716944.367    23716953.090                                   124633384.180    97116960.337                                          39.000          22.000                                  
R07  20337790.695    20337790.211    20337797.012   108869787.606   108869783.607    84676344.412          49.600          48.700          45.500  
R08  19550239.680    19550238.699    19550243.398   104690639.690   104690637.687    81426183.917          49.400          47.400          45.500  
R01  22405205.523    22405204.648    22405212.152   119768667.137   119768668.138    93153433.909          43.800          42.000          35.900  
R09  22163566.000    22163564.727    22163569.883   118352161.286   118352194.298    92051488.843          49.500          46.700          42.700  
R10  19871151.328    19871149.402                   105924378.525   105924409.531                          50.400          48.500                  
C21  24960958.672                   129978266.760                          43.200                  
C16  36252493.367    36252493.270   188776249.417   145973757.122          48.200          46.700  
C14  22240750.547    22240747.773   115813429.590    89554337.591          46.000          49.900  
C10  38449408.953    38449407.121   200216163.776   154819834.564          39.200          41.800  
C09  36941112.336    36941109.469   192362070.260   148746544.533          44.900          46.900  
C07  37419005.359    37419000.168   194850578.665   150670826.617          42.300          45.000  
C05  39758611.875    39758608.430   207033527.596   160091444.939          33.700          38.200  
C04  38645147.031    38645142.809   201235416.725   155607976.138          37.900          42.800  
C03  37099636.352    37099632.199   193187535.585   149384843.732          40.800          43.900  
C02  37817761.813    37817756.277   196927008.333   152276432.962          36.500          43.000  
C01  37899592.586    37899590.367   197353126.083   152605945.536          40.900          44.500  
C24  22880333.781                   119143913.859                          48.100                  
C26  22122933.297                   115199926.644                          49.000                  
C06  36046971.297    36046965.945   187706040.367   145146192.544          45.700          46.400  
E24  26156858.266    26156863.664    26156860.457    26156863.375   137455215.403   102645151.920   105322838.908   103984001.712          44.000          44.000          45.600          48.500  
E09  22411556.516    22411561.602    22411558.680    22411561.367   117773522.909    87947779.881    90242058.229    89094921.852          48.300          49.400          51.000          53.800  
E01  25581762.680    25581767.480    25581764.535    25581767.328   134433065.664   100388348.351   103007163.285   101697760.613          46.400          48.200          49.400          52.300  
E04  24228379.680    24228383.980    24228381.270    24228383.988   127320993.024    95077380.499    97557649.470    96317522.280          49.000          50.200          51.000          53.500  
J02  19447616.070    19447613.109    19447625.648    19447625.113   204395788.862   204395850.873   159269492.659   152633276.775          47.300          48.800                          51.100  
J03  18953382.680    18953379.125    18953395.621    18953396.352   199201429.705   199201425.571   155221890.227   148754331.927          41.000          41.300                          43.400  
J01  18551998.063    18551996.352    18552007.305    18552007.648   194982814.397   194982852.766   151934689.008   145604086.047          43.100          43.100                          47.100  
J07  18577050.016    18577045.219    18577059.902    18577060.070   195246064.927   195246149.840   152139855.110   145800680.471          39.700          46.400                          49.200  
> 2021 12 14 06 34 20.0000000  0 34
G25  23204688.266    23204698.500    23204699.293    23204697.172   121941439.432    95019360.280    95019354.298    91060213.594          40.900          29.600          42.100          44.600  
G26  20696272.875    20696283.688    20696283.672    20696280.941   108759618.374    84747822.176    84747812.179    81216623.596          46.200          49.700          48.000          50.200  
G32  20956806.250    20956815.453    20956815.973    20956813.125   110128735.607    85814657.047    85814648.051    82239034.355          49.600          54.500          49.600          50.100  
G31  20830494.172    20830500.621    20830500.762                   109464968.722    85297420.380    85297424.392                          47.000          50.300          46.700                  
G03  23691140.594    23691150.902    23691151.203    23691149.559   124497753.188    97011300.003    97011295.999    92969154.883          39.800          37.300          43.000          44.800  
G29  23438119.383    23438127.430    23438127.723                   123168126.078    95975214.953    95975215.957                          42.400          33.000          41.900                  
G16  23709153.016    23709161.051                                   124592437.265    97085053.691                                          39.200          22.200                                  
R07  20342390.914    20342389.973    20342396.918   108894411.155   108894407.156    84695496.053          50.500          48.200          44.700  
R08  19547531.945    19547530.645    19547535.391   104676139.091   104676137.093    81414905.678          48.700          47.000          45.600  
R01  22397382.328    22397381.863    22397389.859   119726850.937   119726851.926    93120910.209          43.900          42.200          35.300  
R09  22168649.406    22168648.988    22168653.992   118379309.488   118379342.498    92072604.114          48.800          46.600          42.100  
R10  19872512.508    19872511.230                   105931638.551   105931669.555                          49.500          47.600                  
C21  24966435.969                   130006786.040                          43.400                  
C16  36251070.594    36251070.555   188768840.491   145968028.068          47.400          46.000  
C14  22239205.719    22239202.484   115805382.851    89548115.337          46.600          50.000  
C10  38446623.359    38446621.883   200201659.721   154808619.126          39.700          40.900  
C09  36939380.242    36939377.152   192353049.760   148739569.315          44.800          47.100  
C07  37416201.367    37416196.254   194835976.992   150659535.688          42.100          44.700  
C05  39757963.859    39757960.852   207030153.307   160088835.716          34.000          38.500  
C04  38644418.016    38644414.086   201231622.880   155605042.506          38.100          42.600  
C03  37098952.109    37098947.750   193183971.769   149382087.967          40.900          43.200  
C02  37817080.977    37817075.707   196923463.761   152273692.082          36.800          42.600  
C01  37898886.820    37898885.184   197349452.886   152603105.188          40.900          44.500  
C24  22877846.250                   119130960.588                          47.800                  
C26  22124561.117                   115208402.061                          48.800                  
C06  36045468.438    36045462.484   187698212.253   145140139.346          45.400          46.300  
E24  26151975.844    26151981.512    26151978.445    26151981.277   137429559.650   102625993.433   105303180.638   103964593.331          44.200          43.700          45.800          48.800  
E09  22408182.500    22408187.703    22408184.828    22408187.527   117755793.292    87934540.233    90228473.197    89081509.512          48.300          49.500          50.600          53.900  
E01  25585251.922    25585257.109    25585254.191    25585256.906   134451403.430   100402042.138   103021214.308   101711633.021          46.700          48.400          49.400          51.700  
E04  24230056.008    24230060.379    24230057.664    24230060.355   127329802.487    95083958.993    97564399.578    96324186.583          49.300          49.100          50.300          52.500  
J02  19447850.164    19447847.031    19447859.805    19447859.133   204398248.641   204398310.650   159271409.374   152635113.628          47.800          48.500                          50.400  
J03  18952729.969    18952726.738    18952743.496    18952744.113   199194572.140   199194567.999   155216546.727   148749211.081          41.000          41.700                          43.500  
J01  18551270.883    18551268.781    18551280.039    18551280.266   194975170.066   194975208.428   151928732.386   145598377.613          44.500          42.900                          46.900  
J07  18576690.516    18576685.293    18576699.996    18576700.098   195242284.283   195242369.188   152136909.158   145797857.261          39.200          46.400                          48.900  
> 2021 12 14 06 34 30.0000000  0 34
G25  23210420.016    23210430.168    23210431.090    23210428.668   121971559.269    95042830.282    95042824.304    91082705.670          40.800          29.400          41.000          45.500  
G26  20692277.125    20692288.074    20692287.910    20692285.258   108738621.346    84731460.864    84731450.868    81200944.005          46.200          49.900          48.000          50.800  
G32  20958745.781    20958754.676    20958755.250    20958752.363   110138926.072    85822597.672    85822588.677    82246644.115          49.700          54.600          48.900          50.500  
G31  20830402.859    20830409.422    20830409.887                   109464489.728    85297047.136    85297051.147                          46.700          50.400          46.600                  
G03  23687113.414    23687123.613    23687123.750    23687122.125   124476589.223    96994808.604    96994804.604    92953350.618          39.400          37.800          43.200          44.100  
G29  23436106.188    23436114.875    23436115.125                   123157550.721    95966974.428    95966975.425                          41.900          31.400          42.100                  
G16  23701361.758    23701370.629                                   124551498.296    97053153.215                                          38.800          22.300                                  
R07  20347000.391    20346999.215    20347006.199   108919085.763   108919081.764    84714687.411          50.200          48.300          45.100  
R08  19544836.164    19544835.234    19544840.121   104661705.413   104661703.436    81403679.485          49.100          47.600          45.800  
R01  22389563.438    22389562.574    22389570.180   119685052.120   119685053.137    93088400.014          43.900          41.500          35.200  
R09  22173731.164    22173730.543    22173735.773   118406445.290   118406478.293    92093709.735          48.100          46.500          42.800  
R10  19873879.359    19873877.691                   105938924.122   105938955.113                          50.000          47.900                  
C21  24971913.180                   130035306.924                          43.300                  
C16  36249644.844    36249644.938   188761416.870   145962287.653          47.600          47.000  
C14  22237667.734    22237664.789   115797375.775    89541923.762          46.700          49.700  
C10  38443837.055    38443835.324   200187149.553   154797398.954          39.500          41.200  
C09  36937644.539    36937641.277   192344010.609   148732579.665          44.300          47.600  
C07  37413396.438    37413391.184   194821371.449   150648241.755          42.600          44.400  
C05  39757312.680    39757309.723   207026764.356   160086215.186          33.700          38.700  
C04  38643686.883    38643682.820   201227814.085   155602097.310          38.100          42.700  
C03  37098264.563    37098260.434   193180392.932   149379320.585          40.900          43.700  
C02  37816397.258    37816391.793   196919904.355   152270939.722          36.700          42.600  
C01  37898178.734    37898176.883   197345764.759   152600253.298          40.800          44.700  
C24  22875360.672                   119118017.688                          47.600                  
C26  22126188.953                   115216878.722                          49.500                  
C06  36043961.852    36043956.137   187690368.406   145134073.983          46.100          46.700  
E24  26147095.516    26147101.371    26147098.066    26147101.090   137403914.083   102606842.561   105283530.176   103945192.667          44.100          44.700          45.900          49.000  
E09  22404811.438    22404816.289    22404813.465    22404816.176   117738076.727    87921310.324    90214898.168    89068107.042          48.200          49.400          51.300          53.900  
E01  25588741.289    25588746.383    25588743.406    25588746.191   134469739.773   100415734.864   103035264.231   101725504.345          46.600          48.700          49.500          52.800  
E04  24231736.055    24231740.371    24231737.887    24231740.520   127338631.688    95090552.221    97571164.804    96330865.807          48.500          50.100          51.900          54.300  
J02  19448082.695    19448079.430    19448091.953    19448091.387   204400691.334   204400753.344   159273312.774   152636937.718          47.500          48.700                          51.500  
J03  18952075.906    18952073.156    18952089.547    18952089.969   199187698.122   199187693.988   155211190.403   148744077.947          41.200          41.300                          43.500  
J01  18550543.234    18550540.809    18550552.148    18550552.184   194967520.728   194967559.088   151922771.859   145592665.441          44.000          42.800                          46.700  
J07  18576329.117    18576324.293    18576339.012    18576339.215   195238488.712   195238573.617   152133951.574   145795022.909          40.300          47.300                          49.300  
> 2021 12 14 06 34 40.0000000  0 34
G25  23216152.398    23216162.742    23216163.359    23216161.223   122001683.461    95066303.677    95066297.694    91105200.993          41.100          29.300          42.100          45.600  
G26  20688288.898    20688299.895    20688299.797    20688297.098   108717663.157    84715129.817    84715119.821    81185293.427          46.600          50.000          47.600          50.400  
G32  20960691.016    20960700.332    20960700.750    20960698.012   110149150.141    85830564.471    85830555.476    82254278.969          50.000          54.600          49.100          50.800  
G31  20830312.891    20830319.480    20830320.164                   109464017.402    85296679.100    85296683.104                          46.800          50.300          47.000                  
G03  23683093.313    23683103.930    23683104.242    23683102.609   124455466.369    96978349.240    96978345.243    92937577.057          39.700          37.700          42.400          45.100  
G29  23434102.188    23434110.410    23434110.527                   123147017.146    95958766.449    95958767.446                          42.400          31.900          41.900                  
G16  23693571.930    23693581.488                                   124510567.340    97021259.056                                          38.600          21.300                                  
R07  20351619.148    20351617.984    20351625.133   108943811.393   108943807.400    84733918.444          50.300          48.800          44.600  
R08  19542153.391    19542152.320    19542157.109   104647338.343   104647336.357    81392505.094          49.100          47.500          45.600  
R01  22381747.516    22381746.563    22381754.125   119643270.818   119643271.835    93055903.456          43.900          42.000          36.000  
R09  22178809.930    22178809.969    22178814.988   118433568.548   118433601.549    92114805.591          48.000          46.400          42.700  
R10  19875250.430    19875249.625                   105946235.131   105946266.136                          50.200          48.800                  
C21  24977390.523                   130063829.266                          43.200                  
C16  36248216.586    36248216.324   188753978.617   145956535.928          48.500          47.500  
C14  22236137.977    22236134.609   115789408.328    89535762.833          45.900          49.900  
C10  38441049.008    38441047.629   200172633.143   154786173.948          39.500          40.900  
C09  36935904.992    36935901.805   192334952.762   148725575.563          44.500          46.600  
C07  37410590.781    37410585.738   194806761.956   150636944.782          42.500          44.100  
C05  39756659.344    39756656.086   207023361.633   160083584.219          34.300          39.400  
C04  38642952.203    38642948.328   201223990.281   155599140.500          38.100          43.000  
C03  37097574.375    37097570.309   193176798.988   149376541.528          40.800          43.800  
C02  37815711.078    37815705.457   196916330.177   152268175.947          37.000          43.400  
C01  37897467.555    37897465.980   197342061.768   152597389.908          40.800          45.000  
C24  22872877.289                   119105085.145                          47.800                  
C26  22127816.953                   115225356.594                          49.000                  
C06  36042452.477    36042446.766   187682508.835   145127996.466          45.900          47.400  
E24  26142217.141    26142223.027    26142219.859    26142222.844   137378278.706   102587699.281   105263887.515   103925799.698          43.400          44.400          45.600          48.800  
E09  22401442.344    22401447.441    22401444.555    22401447.313   117720373.217    87908090.175    90201333.142    89054714.459          48.300          50.100          50.900          53.900  
E01  25592230.484    25592235.527    25592232.371    25592235.199   134488074.576   100429426.438   103049312.980   101739374.507          46.100          47.800          49.300          52.600  
E04  24233419.953    24233424.227    24233421.742    24233424.418   127347480.613    95097160.182    97577945.146    96337559.960          48.200          50.300          51.200          54.000  
J02  19448313.445    19448310.211    19448322.875    19448322.223   204403116.928   204403178.945   159275202.854   152638749.043          47.400          49.200                          50.900  
J03  18951420.828    18951417.039    18951433.324    18951433.723   199180807.688   199180803.555   155205821.279   148738932.557          40.900          41.200                          43.600  
J01  18549814.453    18549813.039    18549824.359    18549824.441   194959866.378   194959904.746   151916807.424   145586949.521          43.400          43.000                          47.300  
J07  18575966.977    18575961.500    18575976.242    18575976.246   195234678.262   195234763.168   152130982.396   145792177.450          39.300          46.900                          49.400  
> 2021 12 14 06 34 50.0000000  0 34
G25  23221884.914    23221895.535    23221896.168    23221894.285   122031810.063    95089778.943    95089772.961    91127698.113          41.700          28.700          40.900          45.500  
G26  20684307.883    20684318.500    20684318.719    20684315.957   108696742.065    84698827.679    84698817.683    81169670.543          46.700          50.200          47.800          50.800  
G32  20962642.625    20962652.055    20962652.227    20962649.672   110159406.023    85838556.065    85838547.063    82261937.583          49.700          54.700          49.100          50.600  
G31  20830224.047    20830230.848    20830231.227                   109463550.047    85296314.922    85296318.919                          46.900          50.300          47.300                  
G03  23679081.664    23679091.855    23679092.031    23679090.484   124434383.120    96961920.736    96961916.731    92921833.075          38.700          36.700          42.800          44.200  
G29  23432105.078    23432113.559    23432113.727                   123136523.588    95950589.674    95950590.671                          42.400          32.000          42.500                  
G16  23685785.039    23685793.535                                   124469642.710    96989369.771                                          37.600          22.000                                  
R07  20356247.008    20356246.207    20356253.105   108968585.911   108968581.919    84753187.505          50.500          47.700          44.700  
R08  19539482.781    19539481.281    19539486.328   104633036.477   104633034.501    81381381.424          48.800          47.000          45.700  
R01  22373934.430    22373933.180    22373940.969   119601505.674   119601506.668    93023419.455          43.400          41.200          35.600  
R09  22183886.609    22183886.094    22183891.590   118460677.299   118460710.302    92135890.165          46.900          45.500          42.700  
R10  19876627.297    19876625.234                   105953569.786   105953600.791                          49.900          47.800                  
C21  24982867.656                   130092351.272                          43.400                  
C16  36246784.781    36246784.801   188746523.977   145950771.529          48.300          47.600  
C14  22234614.594    22234611.828   115781478.827    89529631.238          46.000          49.800  
C10  38438259.813    38438258.207   200158108.871   154774942.861          39.200          41.400  
C09  36934161.617    36934158.238   192325874.535   148718555.704          44.300          46.900  
C07  37407784.156    37407778.934   194792146.777   150625643.411          41.800          44.500  
C05  39756001.570    39755999.586   207019941.441   160080939.524          34.600          37.700  
C04  38642215.000    38642210.711   201220149.739   155596170.757          38.300          42.500  
C03  37096881.266    37096876.777   193173188.259   149373749.489          40.800          44.700  
C02  37815021.438    37815015.949   196912739.390   152265399.335          36.500          43.000  
C01  37896753.328    37896751.516   197338342.067   152594513.597          41.000          44.700  
C24  22870395.367                   119092161.159                          47.000                  
C26  22129444.648                   115233833.839                          48.800                  
C06  36040939.703    36040934.105   187674631.789   145121905.437          46.300          46.700  
E24  26137340.633    26137346.391    26137343.129    26137346.184   137352651.764   102568562.316   105244251.318   103906413.116          43.600          44.600          45.700          48.300  
E09  22398075.758    22398080.750    22398077.852    22398080.625   117702681.068    87894878.510    90187776.822    89041330.462          48.500          50.000          51.200          53.800  
E01  25595718.711    25595723.926    25595720.781    25595723.582   134506406.022   100443115.508   103063359.155   101753242.131          46.200          47.300          48.800          51.500  
E04  24235107.367    24235111.578    24235109.004    24235111.746   127356347.482    95103781.542    97584739.239    96344267.688          48.600          49.700          51.000          53.100  
J02  19448542.453    19448539.398    19448551.852    19448551.176   204405523.650   204405585.661   159277078.226   152640546.274          47.600          48.900                          50.700  
J03  18950763.250    18950760.133    18950776.285    18950776.723   199173899.035   199173894.901   155200437.979   148733773.564          41.100          41.800                          43.800  
J01  18549085.898    18549083.934    18549094.762    18549095.234   194952205.262   194952243.629   151910837.721   145581228.556          43.900          43.000                          46.500  
J07  18575602.688    18575597.301    18575612.219    18575612.289   195230851.095   195230936.001   152128000.191   145789319.505          38.800          45.900                          48.800  
> 2021 12 14 06 35  0.0000000  0 34
G25  23227618.875    23227628.668    23227629.629    23227627.539   122061937.758    95113255.079    95113249.089    91150196.063          42.300          30.600          42.500          46.000  
G26  20680333.602    20680344.195    20680344.359    20680341.590   108675856.893    84682553.532    84682543.536    81154074.481          46.500          50.200          47.500          51.200  
G32  20964600.008    20964609.469    20964609.969    20964607.012   110169692.505    85846571.502    85846562.500    82269619.040          49.900          54.700          48.800          50.400  
G31  20830135.961    20830142.488    20830142.883                   109463086.371    85295953.613    85295957.617                          47.000          50.500          47.200                  
G03  23675076.242    23675087.242    23675087.625    23675085.660   124413338.170    96945522.098    96945518.104    92906117.699          38.400          37.100          42.600          44.600  
G29  23430115.438    23430124.055    23430124.102                   123126068.900    95942443.197    95942444.187                          43.000          31.500          41.300                  
G16  23677998.734    23678007.242                                   124428723.358    96957484.612                                          38.200          22.300                                  
R07  20360884.086    20360882.949    20360890.215   108993408.093   108993404.108    84772493.655          49.900          47.600          44.600  
R08  19536823.773    19536822.703    19536827.594   104618798.585   104618796.601    81370307.520          48.700          47.100          45.500  
R01  22366124.828    22366122.762    22366130.813   119559755.310   119559756.318    92990946.953          43.200          41.100          35.700  
R09  22188960.086    22188959.891    22188965.066   118487770.352   118487803.367    92156962.544          46.700          45.100          42.400  
R10  19878007.625    19878005.480                   105960926.638   105960957.643                          49.800          48.200                  
C21  24988344.797                   130120871.642                          43.100                  
C16  36245349.898    36245349.789   188739051.770   145944993.549          48.900          47.200  
C14  22233099.313    22233096.215   115773586.074    89523528.052          45.800          49.700  
C10  38435469.203    38435467.195   200143575.392   154763704.660          40.000          41.300  
C09  36932414.539    36932410.754   192316774.717   148711519.152          44.400          47.200  
C07  37404976.203    37404970.914   194777524.718   150614336.717          42.400          44.000  
C05  39755342.117                   207016504.073                          33.700                  
C04  38641473.750    38641469.906   201216291.256   155593187.127          38.200          42.300  
C03  37096184.273    37096180.023   193169559.462   149370943.477          40.800          44.500  
C02  37814328.289    37814323.113   196909130.893   152262609.028          36.900          42.600  
C01  37896035.273    37896033.848   197334604.535   152591623.501          41.100          43.700  
C24  22867914.461                   119079244.510                          48.100                  
C26  22131072.398                   115242309.256                          48.900                  
C06  36039423.461    36039417.938   187666736.063   145115799.963          45.900          47.200  
E24  26132464.938    26132471.098    26132467.707    26132470.883   137327032.005   102549430.713   105224620.632   103887031.974          43.500          44.400          45.400          49.100  
E09  22394710.961    22394715.965    22394713.102    22394715.863   117684999.119    87881674.460    90174228.319    89027954.188          48.200          49.800          51.100          54.500  
E01  25599206.055    25599211.313    25599208.184    25599211.078   134524732.848   100456801.121   103077401.789   101767106.252          46.400          48.500          49.600          52.300  
E04  24236797.859    24236801.980    24236799.570    24236802.238   127365231.109    95110415.416    97591546.173    96350988.091          47.700          50.100          51.000          53.800  
J02  19448769.516    19448766.137    19448778.852    19448778.258   204407910.241   204407972.259   159278937.914   152642328.476          47.700          48.800                          51.100  
J03  18950103.875    18950100.605    18950117.336    18950117.559   199166971.000   199166966.866   155195039.567   148728600.100          41.300          42.000                          44.000  
J01  18548356.281    18548354.066    18548365.242    18548365.453   194944536.150   194944574.519   151904861.794   145575501.622          45.300          44.100                          47.200  
J07  18575236.883    18575231.566    18575246.516    18575246.402   195227006.047   195227090.952   152125004.060   145786448.207          38.900          47.000                          49.500  
> 2021 12 14 06 35 10.0000000  0 34
G25  23233353.008    23233362.734    23233363.504    23233361.441   122092069.631    95136734.474    95136728.477    91172697.133          42.500          31.000          42.600          45.400  
G26  20676366.836    20676377.297    20676377.473    20676374.711   108655010.784    84666309.821    84666299.817    81138507.596          46.800          50.200          47.500          50.900  
G32  20966563.813    20966573.270    20966573.730    20966570.926   110180012.768    85854613.262    85854604.259    82277325.724          50.000          54.600          48.600          50.000  
G31  20830048.977    20830055.699    20830056.000                   109462629.469    85295597.587    85295601.599                          47.000          50.500          46.700                  
G03  23671080.188    23671090.324    23671090.961    23671088.863   124392334.839    96929155.854    96929151.861    92890433.378          38.300          36.700          42.500          44.200  
G29  23428134.156    23428142.641    23428142.734                   123115656.275    95934329.495    95934330.489                          42.600          31.200          42.100                  
G16  23670213.461    23670221.121                                   124387812.512    96925606.066                                          37.200          20.400                                  
R07  20365530.492    20365529.633    20365536.695   109018280.982   109018276.982    84791839.218          50.000          48.200          44.800  
R08  19534177.586    19534176.367    19534181.445   104604627.902   104604625.911    81359285.873          49.300          46.800          45.300  
R01  22358317.883    22358315.902    22358323.688   119518023.224   119518024.232    92958488.672          42.900          40.500          35.600  
R09  22194031.703    22194031.113    22194036.418   118514850.752   118514883.749    92178025.078          46.900          45.200          42.800  
R10  19879391.875    19879390.445                   105968308.843   105968339.854                          49.900          47.800                  
C21  24993822.141                   130149393.418                          43.800                  
C16  36243912.102    36243912.121   188731565.098   145939204.385          47.400          46.000  
C14  22231590.727    22231588.266   115765733.188    89517455.709          45.700          49.500  
C10  38432676.547    38432675.230   200129035.959   154752461.854          38.900          41.300  
C09  36930662.961    36930659.668   192307656.393   148704468.275          44.100          47.500  
C07  37402166.797    37402162.309   194762898.938   150603027.152          42.500          44.400  
C05  39754679.438    39754676.133   207013051.145   160075611.525          34.200          38.900  
C04  38640730.039    38640726.047   201212417.979   155590192.068          38.300          41.900  
C03  37095484.156    37095480.449   193165915.797   149368125.963          40.500          43.700  
C02  37813632.664    37813627.215   196905507.746   152259807.381          36.400          42.800  
C01  37895314.781    37895313.094   197330852.216   152588721.970          40.900          44.400  
C24  22865436.359                   119066338.318                          48.100                  
C26  22132700.195                   115250785.904                          48.400                  
C06  36037904.391    36037898.547   187658824.785   145109682.462          45.500          46.700  
E24  26127591.930    26127597.844    26127594.340    26127597.539   137301422.697   102530306.923   105204997.951   103867658.735          43.700          44.100          45.100          48.500  
E09  22391348.539    22391353.707    22391350.867    22391353.648   117667330.565    87868480.410    90160690.081    89014588.042          48.300          50.100          51.000          54.100  
E01  25602693.250    25602698.422    25602695.184    25602698.266   134543058.140   100470485.593   103091443.247   101780969.220          46.000          47.600          49.200          52.200  
E04  24238492.156    24238496.219    24238493.859    24238496.520   127374134.599    95117064.120    97598368.317    96357723.517          48.600          50.000          50.500          53.500  
J02  19448995.102    19448991.645    19449004.020    19449003.613   204410279.867   204410341.885   159280784.378   152644098.005          47.600          48.800                          50.800  
J03  18949443.367    18949439.484    18949456.457    18949456.563   199160026.738   199160022.604   155189628.506   148723414.516          41.600          41.400                          44.100  
J01  18547625.953    18547624.027    18547635.238    18547635.500   194936862.204   194936900.564   151898882.098   145569771.079          44.100          43.200                          46.800  
J07  18574869.750    18574864.457    18574878.938    18574879.078   195223146.250   195223231.155   152121996.426   145783565.895          40.000          46.300                          49.400  
> 2021 12 14 06 35 20.0000000  0 34
G25  23239087.711    23239097.805    23239098.605    23239096.488   122122207.269    95160218.351    95160212.353    91195202.514          42.400          31.300          42.900          45.500  
G26  20672407.578    20672418.156    20672418.531    20672415.590   108634205.475    84650097.902    84650087.905    81122971.176          46.900          50.200          48.000          50.900  
G32  20968534.180    20968543.918    20968544.262    20968541.570   110190368.435    85862682.610    85862673.607    82285058.851          50.800          54.500          49.000          50.700  
G31  20829963.570    20829970.195    20829970.766                   109462181.030    85295248.154    85295252.166                          47.000          50.500          46.500                  
G03  23667090.922    23667101.746    23667102.137    23667100.363   124371374.866    96912823.407    96912819.406    92874781.444          38.400          36.900          42.100          44.500  
G29  23426161.055    23426169.363    23426169.375                   123105287.408    95926249.877    95926250.881                          42.300          31.200          42.400                  
G16  23662430.289    23662438.246                                   124346911.798    96893735.437                                          38.400          21.100                                  
R07  20370186.578    20370186.008    20370192.875   109043206.160   109043202.168    84811225.455          49.800          48.200          44.500  
R08  19531544.055    19531543.117    19531547.832   104590526.329   104590524.346    81348317.978          48.400          46.700          45.100  
R01  22350513.813    22350512.867    22350521.082   119476311.426   119476312.413    92926046.176          42.000          40.500          35.300  
R09  22199101.117    22199100.336    22199105.543   118541920.229   118541953.235    92199079.121          46.600          45.400          42.100  
R10  19880782.234    19880780.367                   105975718.007   105975749.019                          49.600          48.300                  
C21  24999300.328                   130177918.202                          42.900                  
C16  36242471.984    36242472.145   188724065.680   145933405.362          47.800          46.800  
C14  22230090.953    22230088.086   115757921.854    89511415.492          46.300          49.400  
C10  38429883.695    38429881.922   200114492.153   154741215.688          39.200          41.300  
C09  36928908.805    36928905.477   192298521.307   148697404.452          44.800          46.800  
C07  37399358.242    37399353.156   194748271.099   150591715.982          42.600          43.900  
C05  39754013.961    39754010.246   207009585.773   160072931.896          34.600          39.300  
C04  38639983.500    38639979.688   201208531.493   155587186.791          38.100          42.100  
C03  37094782.477    37094778.223   193162258.861   149365298.197          40.700          44.100  
C02  37812934.453    37812928.977   196901871.621   152256995.698          36.900          42.700  
C01  37894591.563    37894590.082   197327086.870   152585810.366          40.700          44.000  
C24  22862959.867                   119053444.217                          47.800                  
C26  22134328.570                   115259265.396                          48.700                  
C06  36036382.586    36036376.777   187650899.667   145103554.262          45.800          46.100  
E24  26122721.188    26122726.973    26122723.262    26122726.508   137275825.484   102511192.155   105185384.533   103848294.639          43.700          44.900          45.700          48.700  
E09  22387989.258    22387994.309    22387991.566    22387994.316   117649677.138    87855297.661    90147163.432    89001233.346          48.200          50.100          51.400          54.200  
E01  25606180.461    25606185.430    25606182.461    25606185.469   134561383.505   100484170.114   103105484.759   101794832.231          46.400          47.700          49.500          52.100  
E04  24240190.477    24240194.586    24240192.238    24240194.906   127383059.684    95123728.951    97605207.021    96364475.282          48.500          49.600          51.200          53.900  
J02  19449218.883    19449215.742    19449228.480    19449227.824   204412634.204   204412696.214   159282618.920   152645856.111          47.500          49.300                          51.400  
J03  18948781.133    18948777.621    18948794.527    18948794.395   199153067.913   199153063.772   155184206.104   148718218.062          41.100          41.800                          44.600  
J01  18546895.563    18546893.371    18546904.695    18546905.008   194929185.162   194929223.522   151892899.983   145564038.219          44.100          43.500                          46.700  
J07  18574501.023    18574495.930    18574510.555    18574510.820   195219273.412   195219358.318   152118978.630   145780673.847          39.800          46.000                          48.900  
> 2021 12 14 06 35 30.0000000  0 34
G25  23244824.234    23244834.086    23244834.871    23244832.727   122152351.400    95183707.279    95183701.289    91217712.742          42.300          30.600          42.800          45.500  
G26  20668456.516    20668467.000    20668467.000    20668464.410   108613441.836    84633918.452    84633908.456    81107465.869          46.600          50.200          47.600          51.000  
G32  20970512.063    20970521.434    20970521.898    20970519.125   110200760.387    85870780.227    85870771.231    82292819.067          50.200          54.700          48.400          50.200  
G31  20829880.188    20829886.660    20829887.078                   109461741.800    85294905.896    85294909.900                          47.000          50.400          46.500                  
G03  23663110.938    23663121.625    23663122.230    23663120.359   124350459.013    96896525.359    96896521.362    92859162.476          38.400          36.600          42.700          43.900  
G29  23424196.039    23424204.512    23424204.977                   123094963.225    95918205.082    95918206.071                          42.600          31.900          41.600                  
G16  23654649.828    23654656.914                                   124306022.203    96861873.498                                          38.000          21.100                                  
R07  20374853.055    20374852.133    20374859.250   109068184.558   109068180.572    84830653.094          50.200          48.500          44.900  
R08  19528924.203    19528922.852    19528927.727   104576494.753   104576492.762    81337404.529          48.500          47.200          45.400  
R01  22342714.719    22342713.988    22342721.789   119434620.597   119434621.624    92893619.981          42.000          40.500          35.700  
R09  22204167.766    22204167.391    22204173.148   118568979.564   118569012.582    92220125.271          46.300          44.600          43.300  
R10  19882176.891    19882175.527                   105983154.766   105983185.763                          50.000          48.400                  
C21  25004778.766                   130206446.754                          42.200                  
C16  36241029.711    36241029.426   188716554.374   145927597.142          48.500          47.700  
C14  22228599.023    22228596.109   115750152.988    89505408.118          46.600          48.900  
C10  38427089.945    38427088.336   200099944.883   154729966.826          39.200          41.600  
C09  36927151.469    36927148.047   192289370.256   148690328.283          44.700          46.900  
C07  37396548.789    37396543.891   194733642.086   150580403.914          42.700          44.500  
C05  39753345.711    39753342.707   207006108.367   160070242.958          34.400          38.800  
C04  38639234.836    38639230.832   201204632.723   155584172.025          38.100          41.700  
C03  37094077.570    37094073.086   193158589.556   149362460.862          40.900          44.000  
C02  37812234.406    37812228.234   196898223.314   152254174.605          36.900          41.800  
C01  37893866.203    37893864.621   197323309.217   152582889.242          41.000          44.100  
C24  22860486.094                   119040562.985                          48.300                  
C26  22135957.859                   115267748.555                          49.500                  
C06  36034857.813    36034852.391   187642961.563   145097416.011          45.500          47.300  
E24  26117852.391    26117858.363    26117854.750    26117857.980   137250241.260   102492087.093   105165781.072   103828940.381          43.600          44.700          45.100          48.800  
E09  22384633.039    22384638.180    22384635.297    22384638.004   117632039.756    87842126.886    90133649.072    88987890.777          47.800          49.600          51.500          53.900  
E01  25609667.602    25609672.715    25609669.766    25609672.855   134579709.776   100497855.325   103119526.975   101808695.948          46.800          48.200          49.500          52.400  
E04  24241893.172    24241897.230    24241894.949    24241897.555   127392007.161    95130410.506    97612062.875    96371243.986          48.700          49.900          51.000          53.800  
J02  19449441.602    19449438.277    19449451.051    19449450.324   204414974.057   204415036.067   159284442.189   152647603.416          47.500          49.000                          51.400  
J03  18948117.516    18948114.082    18948130.785    18948131.230   199146095.361   199146091.228   155178773.004   148713011.347          41.700          41.400                          44.500  
J01  18546164.766    18546163.125    18546174.316    18546174.445   194921505.782   194921544.149   151886916.054   145558303.620          43.700          42.900                          47.000  
J07  18574131.539    18574125.961    18574140.773    18574141.000   195215388.356   195215473.262   152115951.319   145777772.675          38.800          46.000                          48.900  
> 2021 12 14 06 35 40.0000000  0 34
G25  23250561.586    23250571.406    23250572.305    23250569.922   122182501.364    95207200.749    95207194.767    91240227.332          42.400          30.000          42.500          45.200  
G26  20664512.813    20664523.660    20664523.422    20664521.051   108592719.310    84617771.040    84617761.044    81091991.268          46.900          50.300          47.700          50.500  
G32  20972496.094    20972505.734    20972506.234    20972503.434   110211188.042    85878905.671    85878896.676    82300605.950          50.200          54.600          49.000          50.400  
G31  20829798.367    20829804.859    20829805.313                   109461311.190    85294570.353    85294574.349                          46.900          50.300          46.800                  
G03  23659139.609    23659149.664    23659150.246    23659148.328   124329586.945    96880261.420    96880257.431    92843576.204          38.500          36.200          41.700          44.300  
G29  23422240.219    23422248.605    23422248.371                   123084683.212    95910194.701    95910195.705                          42.100          31.800          42.000                  
G16  23646870.547    23646877.918                                   124265143.282    96830019.863                                          37.400          20.900                                  
R07  20379528.898    20379528.172    20379535.145   109093215.258   109093211.272    84850121.405          49.800          48.000          44.600  
R08  19526316.438    19526315.555    19526320.289   104562532.763   104562530.771    81326545.202          48.000          46.700          45.500  
R01  22334920.234    22334918.676    22334926.586   119392950.510   119392951.524    92861209.925          41.700          40.500          35.500  
R09  22209233.891    22209232.461    22209238.340   118596028.025   118596061.043    92241162.950          45.800          44.600          43.200  
R10  19883577.250    19883575.836                   105990618.436   105990649.427                          49.900          48.500                  
C21  25010257.773                   130234978.452                          40.900                  
C16  36239584.508    36239584.707   188709030.640   145921779.315          48.700          47.600  
C14  22227115.188    22227112.141   115742425.986    89499433.109          46.000          49.200  
C10  38424296.125    38424293.887   200085393.626   154718714.886          39.000          41.400  
C09  36925390.422    36925387.617   192280202.718   148683239.360          44.000          47.400  
C07  37393738.945    37393734.406   194719011.250   150569090.433          42.300          44.500  
C05  39752676.070    39752672.492   207002618.385   160067544.293          34.400          38.900  
C04  38638483.602    38638479.832   201200721.030   155581147.252          38.200          42.600  
C03  37093370.273    37093366.230   193154907.282   149359613.503          40.800          44.600  
C02  37811530.516    37811525.352   196894562.343   152251343.723          36.900          43.100  
C01  37893138.414    37893136.801   197319518.815   152579958.263          40.900          44.100  
C24  22858015.094                   119027694.085                          48.300                  
C26  22137587.664                   115276234.768                          49.100                  
C06  36033330.641    36033325.125   187635009.872   145091267.261          45.900          47.600  
E24  26112986.266    26112992.234    26112988.645    26112991.754   137224669.438   102472991.287   105146187.107   103809595.493          44.200          44.600          45.400          49.100  
E09  22381279.570    22381284.902    22381281.965    22381284.691   117614417.888    87828967.701    90120146.600    88974559.946          48.500          50.100          51.200          54.000  
E01  25613155.125    25613160.016    25613157.152    25613160.273   134598036.289   100511540.711   103133569.368   101822559.839          46.400          47.500          49.600          52.300  
E04  24243599.945    24243604.035    24243601.777    24243604.363   127400976.484    95137108.373    97618935.471    96378029.220          48.900          49.700          51.400          53.900  
J02  19449662.758    19449659.461    19449672.180    19449671.563   204417298.875   204417360.885   159286253.740   152649339.483          47.300          48.700                          51.300  
J03  18947452.828    18947449.500    18947465.871    18947466.418   199139108.604   199139104.470   155173328.827   148707794.031          41.100          41.300                          44.500  
J01  18545433.836    18545431.852    18545443.180    18545443.453   194913823.552   194913861.913   151880929.892   145552566.884          43.400          43.900                          46.600  
J07  18573760.648    18573755.414    18573769.926    18573770.121   195211490.541   195211575.446   152112914.063   145774861.969          38.800          46.000                          49.300  
> 2021 12 14 06 35 50.0000000  0 34
G25  23256299.898    23256310.215    23256310.965    23256308.621   122212657.947    95230699.377    95230693.395    91262746.856          41.100          29.800          43.400          45.100  
G26  20660577.406    20660588.141    20660588.348    20660585.684   108572038.827    84601656.389    84601646.392    81076548.062          47.000          50.100          47.900          50.700  
G32  20974487.688    20974497.094    20974497.488    20974494.688   110221652.301    85887059.636    85887050.633    82308420.161          50.300          54.600          49.000          50.000  
G31  20829718.117    20829724.750    20829725.043                   109460890.109    85294242.235    85294246.232                          47.300          50.200          47.000                  
G03  23655175.703    23655186.316    23655186.496    23655184.984   124308759.471    96864032.219    96864028.223    92828023.222          38.900          36.400          41.100          44.300  
G29  23420292.086    23420301.059    23420301.078                   123074448.317    95902219.462    95902220.458                          41.800          31.400          42.300                  
G16  23639093.633    23639101.129                                   124224275.996    96798175.277                                          37.100          20.900                                  
R07  20384214.523    20384214.012    20384221.113   109118299.282   109118295.297    84869631.202          50.000          48.300          44.700  
R08  19523723.297    19523721.348    19523726.141   104548641.197   104548639.207    81315740.660          49.000          47.000          45.500  
R01  22327128.344    22327127.836    22327135.340   119351302.257   119351303.271    92828816.845          42.400          40.100          36.000  
R09  22214297.555    22214296.184    22214301.887   118623066.322   118623099.309    92262192.717          46.700          45.100          43.600  
R10  19884982.781    19884981.164                   105998110.003   105998141.015                          50.000          48.200                  
C21  25015738.359                   130263514.064                          41.400                  
C16  36238137.664    36238137.488   188701495.295   145915952.510          48.200          47.700  
C14  22225639.680    22225636.715   115734741.755    89493491.183          46.200          50.000  
C10  38421500.859    38421499.133   200070839.091   154707460.397          39.300          41.800  
C09  36923627.414    36923624.031   192271019.577   148676138.382          45.100          47.300  
C07  37390929.555    37390924.363   194704379.521   150557776.266          42.500          44.700  
C05  39752003.680    39751999.988   206999116.646   160064836.535          34.300          38.700  
C04  38637730.188    38637726.008   201196797.303   155578113.178          37.900          42.600  
C03  37092660.773    37092656.715   193151212.912   149356756.785          40.800          44.200  
C02  37810825.297    37810820.078   196890889.495   152248503.646          36.900          42.500  
C01  37892408.000    37892406.430   197315716.487   152577018.063          40.900          44.600  
C24  22855546.125                   119014838.346                          48.000                  
C26  22139218.234                   115284724.862                          49.100                  
C06  36031801.281    36031795.727   187627045.530   145085108.729          46.100          47.500  
E24  26108122.891    26108128.508    26108124.965    26108128.105   137199110.981   102453905.457   105126603.388   103790260.714          44.500          44.800          44.800          48.600  
E09  22377929.516    22377934.555    22377931.770    22377934.484   117596812.491    87815820.812    90106656.753    88961241.578          47.800          49.200          51.100          53.900  
E01  25616643.000    25616647.660    25616644.984    25616647.891   134616363.878   100525226.896   103147612.587   101836424.537          45.600          47.600          49.000          52.400  
E04  24245311.156    24245315.262    24245312.836    24245315.504   127409968.502    95143823.183    97625825.452    96384831.615          48.700          49.300          51.500          53.700  
J02  19449882.609    19449879.500    19449892.234    19449891.367   204419609.521   204419671.539   159288054.248   152651064.972          47.000          48.600                          50.900  
J03  18946786.602    18946783.738    18946799.969    18946800.500   199132108.501   199132104.368   155167874.261   148702566.745          40.900          41.300                          45.000  
J01  18544702.883    18544700.645    18544712.020    18544712.121   194906139.382   194906177.750   151874942.231   145546828.711          43.600          43.000                          47.200  
J07  18573388.484    18573383.512    18573398.148    18573398.301   195207580.813   195207665.718   152109867.527   145771942.373          39.000          46.100                          49.700  
> 2021 12 14 06 36  0.0000000  0 34
G25  23262039.664    23262049.996    23262050.758    23262048.320   122242820.672    95254202.783    95254196.796    91285270.969          40.800          29.900          43.300          44.900  
G26  20656650.227    20656660.445    20656660.684    20656658.270   108551400.002    84585574.198    84585564.202    81061135.962          46.900          50.000          47.300          50.500  
G32  20976485.648    20976495.238    20976495.938    20976492.855   110232152.763    85895241.809    85895232.813    82316261.417          50.500          54.700          49.300          50.400  
G31  20829639.555    20829646.332    20829646.742                   109460478.186    85293921.257    85293925.261                          47.400          50.400          46.900                  
G03  23651220.477    23651231.305    23651231.777    23651230.035   124287976.357    96847837.578    96847833.581    92812503.361          38.700          36.000          42.100          43.800  
G29  23418353.664    23418361.887    23418362.035                   123064258.309    95894279.210    95894280.195                          41.700          31.800          42.400                  
G16  23631318.688    23631326.496                                   124183420.108    96766339.562                                          37.100          19.900                                  
R07  20388910.711    20388909.793    20388916.699   109143436.048   109143432.049    84889182.006          49.400          48.400          44.600  
R08  19521141.625    19521140.184    19521144.922   104534819.854   104534817.886    81304990.730          49.600          47.300          45.500  
R01  22319342.414    22319340.012    22319348.277   119309675.463   119309676.465    92796440.458          43.200          40.500          36.200  
R09  22219358.430    22219358.328    22219363.594   118650094.274   118650127.273    92283214.452          47.900          45.700          43.200  
R10  19886393.359    19886391.605                   106005628.973   106005659.985                          50.000          48.200                  
C21  25021218.336                   130292053.151                          40.900                  
C16  36236688.594    36236688.266   188693948.070   145910116.518          48.300          48.000  
C14  22224171.961    22224168.773   115727099.989    89487582.082          46.600          50.000  
C10  38418704.945    38418703.105   200056281.069   154696203.227          38.600          42.000  
C09  36921860.555    36921857.352   192261820.459   148669025.047          44.700          47.800  
C07  37388119.422    37388114.082   194689746.546   150546461.130          42.800          44.600  
C05  39751328.344    39751325.223   206995602.818   160062119.412          33.900          39.200  
C04  38636974.172    38636970.547   201192861.274   155575069.593          38.100          43.100  
C03  37091948.758    37091944.934   193147506.060   149353890.411          40.700          43.900  
C02  37810117.797    37810112.270   196887204.501   152245654.174          36.600          43.000  
C01  37891675.477    37891673.820   197311901.822   152574068.320          40.900          44.300  
C24  22853079.656                   119001995.386                          48.000                  
C26  22140848.859                   115293218.443                          49.000                  
C06  36030269.430    36030263.738   187619068.180   145078940.139          46.200          47.300  
E24  26103261.570    26103267.293    26103263.641    26103266.863   137173565.456   102434829.293   105107029.564   103770935.721          44.900          44.400          45.300          48.800  
E09  22374582.367    22374587.410    22374584.621    22374587.352   117579223.227    87802685.978    90093179.267    88947935.421          48.500          50.300          51.100          54.400  
E01  25620130.953    25620135.375    25620132.813    25620135.613   134634692.149   100538913.600   103161656.331   101850289.762          46.400          47.600          49.100          51.900  
E04  24247026.500    24247030.789    24247028.262    24247030.875   127418982.890    95150554.704    97632732.578    96391650.938          48.700          50.100          51.400          54.000  
J02  19450101.055    19450097.816    19450110.410    19450109.852   204421905.595   204421967.612   159289843.401   152652779.575          48.200          48.500                          51.600  
J03  18946119.484    18946115.938    18946132.461    18946132.898   199125094.674   199125090.532   155162409.002   148697329.207          40.800          41.000                          44.900  
J01  18543971.367    18543969.664    18543980.902    18543980.918   194898452.866   194898491.227   151868952.729   145541088.774          45.000          42.600                          47.300  
J07  18573015.555    18573009.938    18573024.832    18573024.902   195203658.816   195203743.729   152106811.433   145769013.619          38.700          46.200                          48.800  
> 2021 12 14 06 36 10.0000000  0 34
G25  23267780.977    23267790.719    23267791.367    23267789.285   122272989.449    95277710.903    95277704.914    91307799.588          40.700          30.000          42.400          45.100  
G26  20652730.523    20652741.129    20652741.254    20652738.820   108530802.929    84569524.538    84569514.534    81045755.036          47.300          50.300          47.700          50.800  
G32  20978490.836    20978500.242    20978500.598    20978497.902   110242689.411    85903452.181    85903443.186    82324129.689          50.000          54.600          48.900          50.400  
G31  20829562.797    20829569.613    20829569.996                   109460075.374    85293607.379    85293611.383                          46.500          50.400          47.100                  
G03  23647274.727    23647284.973    23647285.492    23647283.371   124267237.615    96831677.525    96831673.540    92797016.645          38.300          36.000          42.500          44.300  
G29  23416422.539    23416431.395    23416431.566                   123054113.096    95886373.855    95886374.853                          42.300          32.400          42.600                  
G16  23623546.086    23623554.238                                   124142575.568    96734512.719                                          37.500          20.600                                  
R07  20393615.719    20393615.293    20393622.344   109168625.595   109168621.603    84908773.856          49.300          48.100          44.900  
R08  19518573.883    19518572.254    19518577.086   104521068.681   104521066.681    81294295.368          48.400          47.300          45.700  
R01  22311558.633    22311557.148    22311565.070   119268070.301   119268071.303    92764080.904          42.500          40.400          36.900  
R09  22224418.914    22224417.402    22224422.961   118677111.637   118677144.630    92304227.948          48.000          46.200          43.400  
R10  19887808.766    19887807.324                   106013175.271   106013206.274                          50.000          48.500                  
C21  25026699.648                   130320595.588                          41.100                  
C16  36235236.313    36235236.605   188686388.962   145904271.339          48.000          47.400  
C14  22222712.469    22222709.641   115719500.666    89481705.813          46.800          49.800  
C10  38415908.641    38415907.121   200041719.561   154684943.359          40.000          41.900  
C09  36920090.766    36920087.781   192252605.382   148661899.371          44.200          46.700  
C07  37385308.844    37385303.707   194675112.302   150535145.016          42.500          45.000  
C05  39750651.234    39750648.176   206992076.815   160059392.897          35.600          39.000  
C04  38636216.141    38636212.293   201188912.746   155572016.361          37.900          42.800  
C03  37091235.164    37091230.738   193143786.759   149351014.421          40.600          44.300  
C02  37809407.422    37809402.051   196883507.253   152242795.240          36.900          43.000  
C01  37890940.766    37890939.039   197308074.893   152571109.096          40.800          44.300  
C24  22850616.031                   118989165.165                          48.400                  
C26  22142480.727                   115301715.444                          48.600                  
C06  36028734.945    36028729.262   187611077.787   145072761.460          46.400          46.400  
E24  26098402.797    26098408.637    26098404.789    26098408.086   137148032.951   102415762.846   105087465.723   103751620.581          44.400          44.500          45.500          49.200  
E09  22371238.344    22371243.359    22371240.605    22371243.289   117561650.145    87789563.221    90079714.180    88934641.499          48.300          49.900          50.700          53.900  
E01  25623618.430    25623623.320    25623620.785    25623623.457   134653020.991   100552600.731   103175700.514   101864155.416          46.700          47.800          49.800          52.200  
E04  24248745.914    24248750.430    24248747.840    24248750.492   127428019.603    95157302.899    97639656.810    96398487.152          48.500          50.000          51.000          53.500  
J02  19450318.117    19450314.852    19450327.512    19450326.930   204424187.109   204424249.127   159291621.208   152654483.314          47.400          48.800                          51.300  
J03  18945450.563    18945447.457    18945464.117    18945464.359   199118067.146   199118063.005   155156933.055   148692081.440          40.500          40.800                          45.100  
J01  18543239.969    18543237.863    18543248.988    18543249.176   194890764.050   194890802.418   151862961.442   145535347.120          44.300          43.200                          47.700  
J07  18572641.086    18572635.738    18572650.758    18572650.641   195199724.506   195199809.411   152103745.738   145766075.659          39.700          46.200                          49.400  
> 2021 12 14 06 36 20.0000000  0 34
G25  23273522.906    23273532.406    23273533.316    23273531.371   122303163.919    95301223.473    95301217.490    91330332.480          41.100          30.000          42.600          44.600  
G26  20648819.359    20648829.547    20648829.738    20648827.125   108510247.311    84553507.184    84553497.180    81030405.074          47.000          50.200          47.700          50.800  
G32  20980502.875    20980512.313    20980512.953    20980509.785   110253262.018    85911690.575    85911681.573    82332024.813          49.900          54.600          49.500          50.300  
G31  20829487.992    20829494.637    20829494.898                   109459681.421    85293300.399    85293304.403                          47.400          50.300          46.800                  
G03  23643336.461    23643346.586    23643347.582    23643345.578   124246543.021    96815551.881    96815547.896    92781562.893          38.800          36.200          41.500          44.600  
G29  23414500.297    23414509.066    23414509.434                   123044012.527    95878503.304    95878504.309                          42.600          32.200          42.800                  
G16  23615775.227    23615783.789                                   124101742.354    96702694.676                                          39.000          21.800                                  
R07  20398331.547    20398330.809    20398337.781   109193867.362   109193863.363    84928406.341          49.300          48.300          44.300  
R08  19516018.508    19516017.363    19516022.219   104507387.773   104507385.783    81283654.656          48.300          46.600          45.300  
R01  22303779.172    22303777.813    22303785.953   119226486.669   119226487.676    92731738.101          43.400          41.100          37.000  
R09  22229475.664    22229474.988    22229480.430   118704118.127   118704151.132    92325233.002          47.900          46.000          42.800  
R10  19889229.625    19889227.977                   106020748.346   106020779.365                          49.800          48.400                  
C21  25032181.727                   130349141.157                          41.700                  
C16  36233782.625    36233782.520   188678817.695   145898416.755          47.000          47.600  
C14  22221261.625    22221258.215   115711943.567    89475862.188          47.000          50.200  
C10  38413111.734    38413109.594   200027154.312   154673680.594          39.400          42.500  
C09  36918318.445    36918314.945   192243374.144   148654761.190          44.900          47.300  
C07  37382497.977    37382493.082   194660476.574   150523827.758          42.400          44.900  
C05  39749971.867    39749968.328   206988538.473   160056656.837          34.700          38.800  
C04  38635455.188    38635451.395   201184951.735   155568953.440          38.100          42.100  
C03  37090518.469    37090514.137   193140054.753   149348128.605          40.500          44.200  
C02  37808694.953    37808689.789   196879797.537   152239926.664          36.800          42.100  
C01  37890203.406    37890201.836   197304235.392   152568140.153          40.800          44.300  
C24  22848154.336                   118976347.412                          47.900                  
C26  22144113.219                   115310215.598                          49.300                  
C06  36027197.992    36027192.301   187603074.181   145066572.563          45.900          47.500  
E24  26093546.797    26093552.297    26093548.531    26093551.813   137122513.167   102396705.896   105067911.630   103732315.059          45.100          44.000          44.900          47.800  
E09  22367897.148    22367902.367    22367899.555    22367902.289   117544093.042    87776452.404    90066261.332    88921359.667          47.800          49.600          50.900          53.800  
E01  25627106.555    25627111.387    25627108.773    25627111.359   134671350.127   100566288.078   103189744.921   101878021.296          45.700          48.000          49.600          52.600  
E04  24250470.094    24250474.336    24250471.664    24250474.352   127437078.381    95164067.572    97646597.955    96405340.056          48.500          49.800          51.200          53.600  
J02  19450533.773    19450530.457    19450543.258    19450542.645   204426453.783   204426515.801   159293387.450   152656175.961          47.300          48.800                          51.600  
J03  18944780.727    18944777.043    18944793.922    18944794.207   199111025.662   199111021.529   155151446.228   148686823.258          39.900          40.900                          45.100  
J01  18542507.844    18542505.988    18542517.359    18542517.715   194883072.609   194883110.978   151856968.118   145529603.518          43.300          43.300                          46.800  
J07  18572265.672    18572260.270    18572274.852    18572274.973   195195777.699   195195862.604   152100670.307   145763128.375          40.000          45.800                          49.200  
> 2021 12 14 06 36 30.0000000  0 34
G25  23279265.414    23279275.348    23279276.488    23279274.727   122333345.241    95324741.391    95324735.404    91352870.479          41.600          29.600          42.300          46.300  
G26  20644915.305    20644926.277    20644926.188    20644923.613   108489734.481    84537523.163    84537513.166    81015087.062          47.000          50.300          47.900          50.900  
G32  20982521.938    20982531.270    20982531.512    20982528.809   110263871.846    85919957.968    85919948.966    82339947.729          50.300          54.500          49.000          51.200  
G31  20829414.789    20829421.313    20829421.984                   109459297.534    85293001.266    85293005.263                          47.100          50.300          46.200                  
G03  23639407.406    23639417.410    23639418.105    23639416.488   124225893.974    96799461.697    96799457.700    92766143.131          38.300          36.800          42.100          44.600  
G29  23412587.375    23412595.992    23412595.855                   123033958.036    95870668.648    95870669.646                          42.700          33.300          42.200                  
G16  23608007.672    23608015.395                                   124060921.737    96670886.441                                          38.700          21.800                                  
R07  20403056.805    20403056.336    20403063.082   109219162.729   109219158.729    84948080.505          50.200          47.500          44.900  
R08  19513477.016    19513475.914    19513480.789   104493778.220   104493776.229    81273069.452          48.000          46.800          45.300  
R01  22296004.602    22296003.363    22296011.391   119184926.025   119184926.989    92699413.148          43.400          41.500          37.200  
R09  22234531.273    22234530.418    22234536.039   118731114.930   118731147.923    92346230.513          47.200          45.400          43.400  
R10  19890655.477    19890653.695                   106028349.495   106028380.516                          49.900          48.100                  
C21  25037664.445                   130377690.904                          41.300                  
C16  36232326.352    36232326.496   188671235.587   145892553.787          47.700          47.900  
C14  22219818.633    22219815.422   115704429.997    89470052.218          46.500          50.400  
C10  38410313.930    38410311.977   200012586.538   154662415.884          39.300          41.900  
C09  36916542.609    36916539.598   192234127.923   148647611.430          44.400          47.100  
C07  37379687.609    37379682.375   194645840.657   150512510.350          42.300          44.700  
C05  39749290.695    39749287.055   206984987.972   160053911.144          34.500          39.000  
C04  38634692.602    38634688.879   201180979.277   155565881.688          37.900          42.700  
C03  37089798.969    37089795.273   193136311.269   149345233.904          40.800          44.300  
C02  37807980.836    37807975.531   196876076.701   152237049.477          36.800          42.600  
C01  37889463.891    37889462.047   197300384.601   152565162.473          40.800          43.900  
C24  22845695.453                   118963543.381                          48.200                  
C26  22145746.125                   115318720.129                          49.000                  
C06  36025658.461    36025653.082   187595058.598   145060374.409          45.600          47.600  
E24  26088693.164    26088698.660    26088694.961    26088698.117   137097007.484   102377659.474   105048368.329   103713020.193          44.600          43.900          45.100          48.300  
E09  22364559.742    22364564.688    22364561.828    22364564.578   117526553.271    87763354.520    90052821.771    88908090.943          48.100          49.700          51.200          54.200  
E01  25630594.523    25630599.625    25630596.984    25630599.543   134689680.763   100579976.544   103203790.479   101891888.309          45.800          48.200          49.900          53.200  
E04  24252198.359    24252202.578    24252199.902    24252202.617   127446160.535    95170849.698    97653557.004    96412210.646          48.200          49.900          51.200          53.900  
J02  19450748.141    19450745.199    19450757.617    19450757.035   204428706.881   204428768.898   159295143.121   152657858.481          48.300          48.400                          51.300  
J03  18944109.492    18944106.219    18944122.816    18944123.066   199103971.530   199103967.390   155145949.554   148681555.614          40.800          40.700                          45.100  
J01  18541776.281    18541773.945    18541785.148    18541785.332   194875379.906   194875418.274   151850973.801   145523858.958          43.400          43.200                          47.000  
J07  18571888.961    18571883.480    18571898.539    18571898.496   195191819.631   195191904.537   152097586.105   145760172.682          40.200          46.400                          49.600  
> 2021 12 14 06 36 40.0000000  0 34
G25  23285010.570    23285020.109    23285021.328    23285019.570   122363533.968    95348265.080    95348259.090    91375414.000          41.500          29.700          41.300          46.900  
G26  20641020.531    20641031.156    20641031.344    20641028.309   108469265.045    84521572.968    84521562.971    80999801.458          46.900          50.300          48.300          50.800  
G32  20984547.969    20984557.395    20984557.789    20984554.898   110274519.509    85928254.843    85928245.840    82347898.896          50.100          54.500          48.900          50.900  
G31  20829343.477    20829350.293    20829351.000                   109458924.309    85292710.439    85292714.436                          48.300          50.300          46.600                  
G03  23635486.344    23635496.867    23635497.250    23635495.824   124205291.130    96783407.555    96783403.555    92750757.905          39.600          36.000          41.700          44.700  
G29  23410683.695    23410691.344    23410691.156                   123023950.139    95862870.309    95862871.320                          43.100          31.700          41.300                  
G16  23600242.156    23600250.508                                   124020114.465    96639088.604                                          38.100          22.500                                  
R07  20407792.492    20407791.656    20407798.520   109244511.867   109244507.867    84967796.488          49.900          48.000          44.800  
R08  19510949.109    19510947.910    19510952.883   104480241.027   104480239.044    81262540.522          48.100          47.100          46.000  
R01  22288234.500    22288232.828    22288241.145   119143389.190   119143390.231    92667106.743          42.200          41.100          37.000  
R09  22239585.180    22239584.500    22239590.172   118758102.717   118758135.729    92367221.010          46.200          45.000          43.200  
R10  19892086.875    19892085.277                   106035979.352   106036010.362                          50.400          48.500                  
C21  25043147.664                   130406245.463                          41.300                  
C16  36230868.508    36230868.418   188663643.235   145886682.905          48.200          47.300  
C14  22218383.781    22218381.199   115696960.534    89464276.350          46.800          50.800  
C10  38407515.781    38407513.863   199998016.915   154651149.728          38.900          41.800  
C09  36914764.508    36914760.992   192224867.418   148640450.622          44.500          47.600  
C07  37376876.781    37376871.957   194631205.102   150501193.216          42.300          44.700  
C05  39748606.977    39748603.258   206981428.061   160051157.875          34.500          38.600  
C04  38633927.852    38633923.648   201176996.024   155562801.588          38.000          42.100  
C03  37089078.117    37089073.930   193132556.992   149342330.869          40.600          44.400  
C02  37807263.930    37807258.484   196872345.201   152234164.056          36.900          42.000  
C01  37888722.680    37888720.645   197296523.111   152562176.525          41.100          44.300  
C24  22843239.508                   118950753.631                          48.200                  
C26  22147380.477                   115327229.574                          48.700                  
C06  36024116.875    36024111.633   187587031.682   145054167.489          45.300          47.100  
E24  26083842.320    26083847.781    26083844.164    26083847.301   137071516.473   102358624.020   105028836.289   103693736.451          44.500          43.900          44.800          48.300  
E09  22361225.250    22361230.422    22361227.516    22361230.293   117509031.479    87750270.072    90039395.985    88894835.824          47.900          50.000          51.200          54.000  
E01  25634083.242    25634088.223    25634085.648    25634088.113   134708013.467   100593666.556   103217837.614   101905756.881          46.100          47.800          49.600          52.600  
E04  24253931.125    24253935.363    24253932.773    24253935.441   127455266.636    95177649.705    97660534.399    96419099.347          48.300          50.100          51.600          54.000  
J02  19450961.430    19450958.086    19450970.703    19450970.016   204430947.016   204431009.033   159296888.681   152659531.309          47.600          48.300                          51.500  
J03  18943437.297    18943433.703    18943450.375    18943450.523   199096905.354   199096901.214   155140443.489   148676278.976          39.600          40.300                          45.500  
J01  18541044.367    18541042.137    18541052.844    18541053.227   194867686.520   194867724.888   151844978.950   145518113.901          43.900          42.700                          46.600  
J07  18571511.461    18571505.910    18571520.773    18571520.785   195187850.920   195187935.825   152094493.602   145757209.036          40.400          46.800                          49.100  
> 2021 12 14 06 36 50.0000000  0 34
G25  23290757.023    23290766.691    23290767.555    23290765.824   122393730.511    95371794.856    95371788.874    91397963.366          42.200          29.800          41.400          46.800  
G26  20637134.141    20637144.195    20637144.176    20637141.555   108448839.604    84505657.046    84505647.049    80984548.704          47.100          50.300          47.200          50.800  
G32  20986581.375    20986590.762    20986591.184    20986588.383   110285205.534    85936581.615    85936572.621    82355878.726          50.000          54.400          49.200          50.900  
G31  20829275.008    20829281.609    20829281.871                   109458562.281    85292428.345    85292432.342                          46.800          50.200          47.000                  
G03  23631574.438    23631585.215    23631585.691    23631583.953   124184735.059    96767389.824    96767385.828    92735407.579          38.700          36.500          42.100          45.400  
G29  23408787.609    23408795.484    23408795.777                   123013989.507    95855108.796    95855109.777                          42.300          31.700          41.700                  
G16  23592480.305    23592488.000                                   123979321.032    96607301.581                                          38.200          22.300                                  
R07  20412538.164    20412537.535    20412544.164   109269915.551   109269911.573    84987554.902          49.700          48.200          44.700  
R08  19508435.070    19508433.371    19508438.492   104466776.619   104466774.637    81252068.216          48.300          46.700          46.000  
R01  22280468.883    22280467.125    22280475.340   119101876.920   119101877.896    92634819.434          42.200          40.800          37.300  
R09  22244637.305    22244636.484    22244642.492   118785081.807   118785114.814    92388204.747          46.700          44.600          43.900  
R10  19893523.906    19893521.691                   106043638.243   106043669.233                          49.800          48.500                  
C21  25048632.500                   130434805.298                          42.000                  
C16  36229408.789    36229408.719   188656041.219   145880804.544          48.100          47.700  
C14  22216957.914    22216955.164   115689535.785    89458535.063          45.900          50.500  
C10  38404717.625    38404715.723   199983445.960   154639882.560          38.600          41.800  
C09  36912983.367    36912980.129   192215593.202   148633279.215          44.800          47.600  
C07  37374065.930    37374061.398   194616570.482   150489876.808          42.700          45.000  
C05  39747921.680    39747917.754   206977858.144   160048397.920          33.900          38.600  
C04  38633160.586    38633156.551   201173002.571   155559713.605          38.100          42.500  
C03  37088355.359    37088351.035   193128792.389   149339419.844          40.800          44.400  
C02  37806545.227    37806540.469   196868603.718   152231270.908          37.100          42.400  
C01  37887978.789    37887977.195   197292651.536   152559182.775          40.900          44.900  
C24  22840786.133                   118937978.730                          48.200                  
C26  22149015.680                   115335744.487                          48.800                  
C06  36022573.602    36022567.918   187578993.974   145047952.225          45.800          47.500  
E24  26078994.305    26078999.773    26078996.289    26078999.320   137046040.712   102339599.941   105009315.922   103674464.222          44.800          43.500          44.900          48.300  
E09  22357894.742    22357899.699    22357896.738    22357899.547   117491528.290    87737199.507    90025984.451    88881594.771          49.000          49.700          51.000          54.100  
E01  25637571.992    25637577.379    25637574.719    25637577.207   134726348.741   100607358.480   103231886.715   101919627.395          45.600          48.200          49.400          52.800  
E04  24255668.680    24255672.867    24255670.293    24255672.957   127464397.260    95184468.019    97667530.585    96426006.598          48.300          50.100          51.000          54.100  
J02  19451173.188    19451169.996    19451182.789    19451182.164   204433174.700   204433236.718   159298624.541   152661194.838          47.300          48.500                          51.300  
J03  18942763.656    18942760.344    18942776.855    18942777.379   199089827.716   199089823.574   155134928.501   148670993.785          40.100          40.300                          45.400  
J01  18540312.203    18540309.863    18540321.152    18540321.383   194859992.991   194860031.359   151838983.989   145512368.725          43.800          43.400                          47.000  
J07  18571132.891    18571127.355    18571142.047    18571142.250   195183872.128   195183957.033   152091393.253   145754237.867          40.400          46.500                          49.500  
> 2021 12 14 06 37  0.0000000  0 34
G25  23296504.297    23296514.477    23296515.254    23296513.617   122423934.999    95395330.833    95395324.846    91420518.658          42.200          29.900          41.700          46.700  
G26  20633255.250    20633265.656    20633265.621    20633263.105   108428458.366    84489775.575    84489765.578    80969328.965          47.200          50.300          48.200          50.900  
G32  20988622.164    20988631.684    20988632.063    20988629.145   110295930.139    85944938.444    85944929.442    82363887.352          49.900          54.500          48.700          50.800  
G31  20829208.703    20829214.969    20829215.457                   109458211.676    85292155.154    85292159.150                          46.400          50.200          47.500                  
G03  23627672.555    23627682.414    23627682.984    23627681.227   124164225.980    96751408.739    96751404.735    92720092.379          38.400          36.600          41.600          44.600  
G29  23406900.820    23406909.406    23406909.578                   123004076.295    95847384.234    95847385.231                          42.600          31.700          42.100                  
G16  23584719.430    23584728.266                                   123938541.901    96575525.708                                          38.900          23.800                                  
R07  20417293.844    20417293.176    20417300.059   109295373.892   109295369.899    85007355.831          49.200          48.100          44.400  
R08  19505933.930    19505932.777    19505937.883   104453385.287   104453383.304    81241652.737          48.100          46.300          46.100  
R01  22272707.867    22272706.152    22272713.813   119060389.425   119060390.433    92602551.410          42.200          41.300          37.200  
R09  22249688.008    22249687.168    22249693.027   118812052.396   118812085.400    92409181.858          46.800          44.600          44.000  
R10  19894965.727    19894964.188                   106051326.275   106051357.279                          49.700          48.200                  
C21  25054118.359                   130463370.451                          42.000                  
C16  36227946.922    36227946.801   188648429.744   145874918.868          47.600          48.100  
C14  22215540.953    22215537.984   115682155.968    89452828.517          46.200          49.600  
C10  38401919.461    38401917.652   199968873.878   154628614.519          39.400          42.300  
C09  36911199.930    36911196.461   192206305.401   148626097.299          44.600          47.300  
C07  37371256.086    37371251.262   194601937.017   150478561.300          41.900          44.400  
C05  39747233.453    39747230.238   206974278.450   160045629.878          34.100          38.900  
C04  38632391.719    38632387.957   201168999.135   155556617.894          38.100          42.600  
C03  37087630.250    37087626.305   193125017.680   149336501.003          40.600          43.900  
C02  37805825.430    37805819.941   196864852.392   152228370.161          37.200          42.500  
C01  37887233.070    37887231.770   197288769.977   152556181.304          41.000          44.300  
C24  22838335.586                   118925218.797                          47.900                  
C26  22150651.953                   115344264.946                          48.600                  
C06  36021028.094    36021022.430   187570945.663   145041728.757          45.900          47.300  
E24  26074149.234    26074154.840    26074151.340    26074154.406   137020580.428   102320587.406   104989807.409   103655203.699          44.200          43.400          44.900          48.000  
E09  22354567.344    22354572.621    22354569.566    22354572.375   117474043.921    87724142.999    90012587.342    88868367.969          48.000          49.800          51.300          54.400  
E01  25641061.984    25641067.031    25641064.215    25641066.797   134744686.695   100621052.409   103245937.879   101933499.938          46.600          47.800          49.500          52.000  
E04  24257410.742    24257415.016    24257412.371    24257415.152   127473552.550    95191304.753    97674545.666    96432932.506          48.200          49.800          51.200          53.800  
J02  19451384.180    19451380.762    19451393.223    19451392.793   204435390.143   204435452.160   159300350.870   152662849.239          47.800          48.600                          51.100  
J03  18942089.164    18942086.000    18942102.598    18942102.879   199082738.810   199082734.677   155129404.728   148665700.184          40.100          40.600                          44.900  
J01  18539580.258    18539578.047    18539589.305    18539589.324   194852299.578   194852337.946   151832989.120   145506623.642          44.200          42.900                          47.200  
J07  18570753.320    18570747.754    18570762.578    18570762.809   195179883.433   195179968.338   152088285.182   145751259.302          40.700          47.200                          49.100  
> 2021 12 14 06 37 10.0000000  0 34
G25  23302253.359    23302263.770    23302264.582    23302262.863   122454146.936    95418872.591    95418866.608    91443079.504          42.600          29.800          41.000          47.200  
G26  20629385.133    20629395.570    20629395.957    20629393.012   108408121.014    84473928.295    84473918.298    80954141.984          47.000          50.300          47.700          50.300  
G32  20990670.391    20990679.715    20990680.332    20990677.270   110306692.921    85953325.023    85953316.028    82371924.491          50.000          54.500          48.600          50.200  
G31  20829143.656    20829150.453    20829150.816                   109457872.075    85291890.524    85291894.535                          46.700          50.300          46.600                  
G03  23623778.820    23623788.582    23623789.582    23623787.480   124143763.656    96735464.081    96735460.084    92704812.084          39.200          36.800          42.000          45.200  
G29  23405023.086    23405032.375    23405032.332                   122994210.376    95839696.521    95839697.518                          42.500          31.100          42.300                  
G16  23576962.242    23576970.988                                   123897776.681    96543760.673                                          40.000          23.300                                  
R07  20422060.578    20422058.848    20422066.227   109320886.286   109320882.301    85027198.802          48.900          47.800          44.200  
R08  19503446.883    19503445.684    19503450.832   104440066.795   104440064.796    81231293.899          48.500          47.300          45.600  
R01  22264950.680    22264949.074    22264957.520   119018926.519   119018927.521    92570302.497          42.600          40.100          36.200  
R09  22254736.867    22254736.078    22254742.020   118839014.041   118839047.050    92430151.998          46.200          43.800          43.200  
R10  19896413.906    19896411.934                   106059043.020   106059074.031                          49.600          48.000                  
C21  25059605.070                   130491940.558                          42.700                  
C16  36226483.336    36226483.273   188640808.476   145869025.629          47.900          47.800  
C14  22214132.266    22214129.383   115674820.710    89447156.426          46.600          50.000  
C10  38399120.688    38399118.469   199954300.322   154617345.330          39.600          41.600  
C09  36909413.648    36909410.117   192197003.707   148618904.647          45.000          48.200  
C07  37368446.352    37368441.133   194587304.327   150467246.389          42.200          44.700  
C05  39746543.680    39746540.902   206970688.664   160042854.020          34.300          37.600  
C04  38631621.102    38631617.195   201164985.227   155553514.098          38.100          42.400  
C03  37086903.266    37086899.238   193121232.479   149333574.060          40.700          43.900  
C02  37805102.695    37805097.438   196861090.890   152225461.531          36.600          42.600  
C01  37886486.367    37886484.555   197284878.107   152553171.865          40.900          44.600  
C24  22835888.211                   118912473.483                          48.200                  
C26  22152289.070                   115352790.610                          48.800                  
C06  36019480.117    36019474.500   187562886.445   145035496.866          46.700          47.300  
E24  26069307.367    26069312.738    26069309.363    26069312.352   136995135.247   102301586.158   104970310.477   103635954.611          44.500          44.000          45.300          48.500  
E09  22351243.734    22351249.020    22351245.934    22351248.727   117456578.074    87711100.328    89999204.426    88855155.169          48.200          50.100          51.200          54.000  
E01  25644551.813    25644557.051    25644554.156    25644556.820   134763026.938   100634748.046   103259990.798   101947374.221          46.700          47.700          49.400          52.400  
E04  24259157.695    24259161.824    24259159.328    24259161.980   127482732.194    95198159.675    97681579.414    96439876.843          48.600          50.500          50.800          54.000  
J02  19451593.688    19451590.449    19451603.082    19451602.488   204437592.942   204437654.960   159302067.336   152664494.188          47.900          48.700                          50.900  
J03  18941413.523    18941410.309    18941427.105    18941427.344   199075638.253   199075634.112   155123871.872   148660397.879          39.400          40.300                          45.300  
J01  18538848.078    18538845.898    18538857.180    18538857.500   194844605.841   194844644.209   151826993.999   145500878.326          43.900          43.000                          46.900  
J07  18570372.445    18570367.824    18570382.645    18570382.652   195175884.462   195175969.373   152085169.108   145748273.068          40.300          46.400                          49.500  
> 2021 12 14 06 37 20.0000000  0 34
G25  23308004.430    23308014.449    23308015.199    23308013.453   122484366.403    95442420.238    95442414.256    91465645.987          42.500          30.400          41.300          46.500  
G26  20625523.250    20625533.945    20625534.281    20625531.273   108387827.649    84458115.287    84458105.291    80938987.862          47.300          50.300          47.800          50.700  
G32  20992725.875    20992735.035    20992735.688    20992732.703   110317494.027    85961741.465    85961732.470    82379990.249          50.100          54.400          48.800          50.200  
G31  20829080.992    20829087.777    20829088.313                   109457543.516    85291634.499    85291638.503                          47.000          50.400          46.400                  
G03  23619893.492    23619903.910    23619904.199    23619902.520   124123348.210    96719555.930    96719551.940    92689566.781          39.700          37.200          41.700          45.000  
G29  23403155.273    23403163.543    23403163.750                   122984391.801    95832045.705    95832046.688                          41.700          32.800          42.300                  
G16  23569207.469    23569216.262                                   123857025.683    96512006.720                                          39.100          22.900                                  
R07  20426836.086    20426834.711    20426842.316   109346452.689   109346448.704    85047083.771          49.300          47.200          44.600  
R08  19500973.516    19500972.258    19500977.344   104426821.083   104426819.091    81220991.684          48.800          46.600          45.600  
R01  22257198.344    22257197.332    22257205.633   118977488.388   118977489.405    92538072.842          42.500          40.500          36.200  
R09  22259784.852    22259783.543    22259789.180   118865966.869   118865999.860    92451115.281          47.100          44.700          42.900  
R10  19897867.039    19897864.996                   106066788.435   106066819.425                          50.100          48.200                  
C21  25065092.516                   130520515.593                          43.200                  
C16  36225018.055    36225017.781   188633177.519   145863124.877          48.700          47.900  
C14  22212732.070    22212729.414   115667530.169    89441518.925          46.100          49.800  
C10  38396321.828    38396319.922   199939725.463   154606075.129          38.800          41.600  
C09  36907624.297    36907621.211   192187688.272   148611701.371          45.000          47.200  
C07  37365636.406    37365631.000   194572672.565   150455932.183          42.700          44.800  
C05  39745853.055    39745849.652   206967088.901   160040070.479          35.000          39.000  
C04  38630848.664    38630844.371   201160961.095   155550402.393          37.900          42.300  
C03  37086174.766    37086170.527   193117436.945   149330639.110          40.800          43.900  
C02  37804378.305    37804373.121   196857319.230   152222545.048          36.500          43.000  
C01  37885736.680    37885734.910   197280976.063   152550154.551          40.900          43.500  
C24  22833443.117                   118899742.855                          48.300                  
C26  22153927.297                   115361321.534                          48.900                  
C06  36017930.414    36017924.895   187554816.450   145029256.631          45.900          47.300  
E24  26064468.234    26064473.609    26064470.188    26064473.188   136969705.338   102282596.317   104950825.249   103616717.082          44.800          43.500          45.400          47.900  
E09  22347923.734    22347928.980    22347925.938    22347928.652   117439130.936    87698071.619    89985835.837    88841956.523          48.300          50.200          51.100          53.800  
E01  25648042.414    25648047.590    25648044.605    25648047.305   134781369.514   100648445.424   103274045.502   101961250.263          46.500          47.700          49.800          52.100  
E04  24260909.203    24260913.227    24260910.863    24260913.465   127491936.260    95205032.839    97688631.878    96446839.656          48.200          50.200          51.000          53.900  
J02  19451802.078    19451798.867    19451811.277    19451810.855   204439783.254   204439845.271   159303774.078   152666129.821          47.800          48.800                          50.800  
J03  18940736.852    18940733.660    18940750.281    18940750.758   199068526.232   199068522.100   155118330.081   148655087.004          40.000          40.500                          44.300  
J01  18538116.117    18538114.172    18538125.145    18538125.371   194836911.981   194836950.350   151820998.779   145495132.905          43.500          43.400                          47.400  
J07  18569991.211    18569986.137    18570000.867    18570001.047   195171875.384   195171960.297   152082045.156   145745279.279          39.600          46.000                          49.300  
> 2021 12 14 06 37 30.0000000  0 34
G25  23313756.367    23313766.836    23313767.727    23313765.875   122514595.590    95465975.446    95465969.457    91488219.716          42.600          30.400          41.400          46.700  
G26  20621670.422    20621681.098    20621681.145    20621678.387   108367580.687    84442338.445    84442328.448    80923868.392          47.000          50.500          48.400          51.000  
G32  20994788.789    20994798.289    20994798.680    20994795.832   110328335.793    85970189.593    85970180.598    82388086.367          50.100          54.500          48.800          50.500  
G31  20829021.313    20829027.707    20829028.375                   109457228.375    85291388.942    85291392.946                          47.800          50.300          46.300                  
G03  23616018.047    23616028.215    23616028.813    23616027.047   124102982.091    96703686.234    96703682.245    92674358.322          39.600          37.200          41.800          45.200  
G29  23401296.609    23401305.012    23401304.938                   122974623.044    95824433.708    95824434.705                          43.000          31.800          43.400                  
G16  23561455.836    23561464.547                                   123816291.181    96480265.604                                          39.900          22.800                                  
R07  20431622.531    20431621.504    20431628.656   109372075.442   109372071.450    85067012.565          48.400          47.300          44.600  
R08  19498513.797    19498512.703    19498517.898   104413651.034   104413649.036    81210748.319          47.900          47.600          45.600  
R01  22249451.422    22249451.000    22249458.863   118936077.801   118936078.815    92505864.618          42.100          40.700          36.100  
R09  22264830.977    22264830.074    22264835.504   118892912.987   118892946.005    92472073.389          46.900          44.900          43.000  
R10  19899325.570    19899323.477                   106074564.875   106074595.879                          49.800          48.600                  
C21  25070581.406                   130549097.853                          42.800                  
C16  36223551.047    36223551.125   188625539.270   145857218.499          47.900          47.500  
C14  22211341.281    22211338.125   115660286.693    89435917.809          46.600          49.800  
C10  38393522.195    38393521.023   199925151.616   154594805.718          39.500          42.000  
C09  36905833.195    36905830.023   192178361.404   148604489.244          44.900          48.000  
C07  37362827.141    37362822.035   194558044.072   150444620.521          43.000          45.100  
C05  39745159.625    39745156.867   206963481.414   160037280.944          34.500          38.600  
C04  38630074.297    38630070.051   201156929.054   155547284.564          38.200          42.900  
C03  37085444.227    37085439.949   193113633.413   149327697.984          40.700          43.800  
C02  37803652.609    37803647.391   196853539.867   152219622.619          36.600          42.100  
C01  37884985.742    37884984.090   197277066.169   152547131.177          40.900          44.700  
C24  22831001.766                   118887029.249                          47.900                  
C26  22155567.102                   115369860.027                          49.000                  
C06  36016379.383    36016373.668   187546738.003   145023009.861          46.500          48.100  
E24  26059632.484    26059637.766    26059634.473    26059637.379   136944293.059   102263619.650   104931353.529   103597492.887          44.100          44.000          45.300          48.500  
E09  22344607.664    22344612.813    22344609.855    22344612.570   117421704.917    87685058.688    89972483.437    88828773.857          47.700          50.500          51.200          53.900  
E01  25651533.797    25651538.805    25651535.879    25651538.668   134799716.726   100662146.269   103288103.755   101975129.809          46.000          47.800          49.700          51.900  
E04  24262665.820    24262669.805    24262667.379    24262670.063   127501167.153    95211926.034    97695704.902    96453822.763          48.500          49.900          51.300          53.700  
J02  19452009.484    19452006.617    19452019.137    19452018.293   204441963.389   204442025.406   159305472.886   152667757.848          47.200          48.800                          50.800  
J03  18940059.414    18940055.754    18940072.422    18940072.926   199061405.097   199061400.964   155112781.186   148649769.330          40.300          41.200                          45.100  
J01  18537384.117    18537382.344    18537393.582    18537393.762   194829220.295   194829258.663   151815005.261   145489389.117          43.200          42.800                          46.900  
J07  18569608.852    18569603.996    18569618.879    18569618.953   195167858.503   195167943.408   152078915.121   145742279.667          38.800          46.000                          49.200  
> 2021 12 14 06 37 40.0000000  0 34
G25  23319510.297    23319520.926    23319522.012    23319519.961   122544832.922    95489537.005    95489531.008    91510799.534          42.600          31.100          42.700          46.100  
G26  20617826.297    20617836.855    20617836.813    20617834.047   108347378.607    84426596.576    84426586.580    80908782.435          47.500          50.400          47.600          50.300  
G32  20996859.602    20996868.813    20996869.422    20996866.527   110339216.695    85978668.216    85978659.221    82396211.714          50.300          54.500          48.800          50.400  
G31  20828963.445    20828970.063    20828970.449                   109456925.088    85291152.617    85291156.614                          46.700          50.400          46.400                  
G03  23612150.992    23612161.555    23612162.008    23612160.684   124082663.819    96687853.814    96687849.822    92659185.588          39.700          37.400          41.600          44.800  
G29  23399446.602    23399455.125    23399455.191                   122964902.628    95816859.358    95816860.370                          43.600          33.100          42.500                  
G16  23553707.695    23553715.867                                   123775571.841    96448536.313                                          39.600          23.900                                  
R07  20436419.453    20436418.320    20436425.461   109397753.083   109397749.091    85086984.060          49.200          46.800          44.200  
R08  19496068.594    19496067.199    19496072.176   104400555.015   104400553.022    81200562.521          49.100          47.000          45.700  
R01  22241710.219    22241709.270    22241717.000   118894693.180   118894694.180    92473676.573          43.100          40.600          35.800  
R09  22269874.867    22269874.852    22269880.273   118919850.975   118919883.985    92493025.163          47.000          45.400          43.500  
R10  19900789.594    19900788.043                   106082370.610   106082401.614                          49.900          48.300                  
C21  25076071.313                   130577685.750                          43.100                  
C16  36222082.461    36222082.219   188617892.182   145851305.289          47.900          47.700  
C14  22209959.117    22209955.914   115653088.771    89430351.909          46.300          49.500  
C10  38390723.656    38390722.367   199910577.338   154583535.964          39.400          41.600  
C09  36904039.711    36904036.492   192169021.632   148597267.146          45.200          47.700  
C07  37360017.977    37360012.906   194543417.254   150433310.141          42.000          45.400  
C05  39744465.453    39744462.293   206959864.779   160034484.348          34.900          38.800  
C04  38629298.289    38629293.977   201152887.522   155544159.397          38.100          42.300  
C03  37084711.883    37084707.711   193109820.358   149324749.493          40.700          44.100  
C02  37802925.039    37802919.590   196849751.207   152216692.986          37.100          42.600  
C01  37884233.195    37884231.660   197273146.902   152544100.548          40.900          44.400  
C24  22828562.813                   118874331.105                          48.200                  
C26  22157207.852                   115378404.537                          48.400                  
C06  36014825.781    36014820.379   187538649.616   145016755.407          46.300          47.200  
E24  26054799.422    26054804.918    26054801.770    26054804.582   136918896.930   102244655.027   104911894.174   103578280.901          45.000          43.600          45.600          48.900  
E09  22341295.258    22341300.504    22341297.613    22341300.250   117404298.527    87672060.414    89959146.067    88815606.037          48.300          50.000          51.500          54.500  
E01  25655025.734    25655030.711    25655027.703    25655030.625   134818067.026   100675849.415   103302164.380   101989011.697          46.300          47.400          49.100          51.800  
E04  24264427.039    24264431.059    24264428.797    24264431.438   127510423.286    95218838.083    97702797.264    96460824.968          48.200          50.100          51.000          53.800  
J02  19452215.828    19452212.586    19452225.098    19452224.578   204444131.789   204444193.813   159307162.560   152669377.113          47.000          48.800                          50.500  
J03  18939380.867    18939377.066    18939394.063    18939394.320   199054273.321   199054269.181   155107224.012   148644443.713          40.300          41.200                          45.000  
J01  18536652.547    18536650.215    18536661.551    18536661.738   194821529.316   194821567.685   151809012.295   145483645.857          43.400          42.700                          46.800  
J07  18569226.008    18569220.738    18569235.586    18569235.652   195163832.329   195163917.234   152075777.851   145739273.115          38.800          46.000                          49.100  
> 2021 12 14 06 37 50.0000000  0 34
G25  23325265.820    23325276.633    23325277.207    23325275.641   122575078.636    95513105.091    95513099.097    91533385.626          41.700          30.000          43.100          46.000  
G26  20613990.438    20614001.055    20614000.891    20613998.340   108327221.812    84410889.993    84410879.997    80893730.288          47.200          50.500          47.800          50.400  
G32  20998937.641    20998947.055    20998947.516    20998944.617   110350137.086    85987177.604    85987168.607    82404366.542          49.900          54.600          49.500          50.300  
G31  20828908.109    20828914.781    20828915.402                   109456634.050    85290925.836    85290929.840                          46.600          50.200          46.900                  
G03  23608294.969    23608304.035    23608305.016    23608303.344   124062393.782    96672058.987    96672054.998    92644048.885          39.600          37.100          41.700          45.200  
G29  23397605.930    23397614.594    23397614.875                   122955230.956    95809322.988    95809323.978                          43.200          32.400          42.100                  
G16  23545961.523    23545970.316                                   123734868.162    96416819.210                                          39.800          22.600                                  
R07  20441226.539    20441225.535    20441232.387   109423485.665   109423481.680    85106998.274          49.300          47.200          44.000  
R08  19493636.375    19493635.539    19493640.426   104387533.337   104387531.346    81190434.551          48.900          47.800          45.500  
R01  22233974.500    22233972.301    22233980.395   118853335.075   118853336.100    92441509.187          42.200          40.400          36.000  
R09  22274918.680    22274918.371    22274923.504   118946781.192   118946814.188    92513970.865          46.300          44.700          43.100  
R10  19902259.797    19902257.961                   106090206.178   106090237.182                          49.700          48.500                  
C21  25081562.602                   130606279.555                          43.600                  
C16  36220612.367    36220612.156   188610236.647   145845385.548          48.000          47.300  
C14  22208585.445    22208582.508   115645936.806    89424821.559          46.400          49.700  
C10  38387925.266    38387923.109   199896002.836   154572266.046          39.200          41.900  
C09  36902243.977    36902240.195   192159669.326   148590035.355          45.200          47.600  
C07  37357209.641    37357204.512   194528792.612   150422001.452          42.600          45.000  
C05  39743768.750    39743766.336   206956238.373   160031679.958          34.400          38.100  
C04  38628519.805    38628516.184   201148836.950   155541027.245          38.400          42.600  
C03  37083977.500    37083973.664   193105998.125   149321793.913          40.800          44.600  
C02  37802195.703    37802190.379   196845953.673   152213756.507          36.500          42.300  
C01  37883479.031    37883477.270   197269218.661   152541062.973          40.900          44.600  
C24  22826127.281                   118861648.797                          47.500                  
C26  22158850.375                   115386955.382                          48.000                  
C06  36013270.852    36013265.324   187530551.674   145010493.562          45.800          47.000  
E24  26049970.039    26049975.266    26049972.313    26049974.961   136893517.305   102225702.736   104892447.472   103559081.398          44.200          44.000          45.700          49.000  
E09  22337986.727    22337991.891    22337989.004    22337991.730   117386912.191    87659077.108    89945824.073    88802453.390          48.300          49.700          51.500          54.200  
E01  25658518.148    25658523.156    25658520.277    25658523.215   134836420.637   100689555.042   103316227.541   102002896.090          46.200          47.700          49.000          51.800  
E04  24266193.445    24266197.414    24266195.020    24266197.703   127519705.067    95225769.279    97709909.276    96467846.574          48.100          50.100          51.300          54.000  
J02  19452421.164    19452417.668    19452430.352    19452429.742   204446288.856   204446350.874   159308843.389   152670987.914          47.400          48.500                          51.500  
J03  18938701.133    18938697.898    18938714.402    18938714.938   199047131.270   199047127.122   155101658.827   148639110.420          40.600          40.800                          45.500  
J01  18535920.813    18535918.949    18535929.797    18535930.141   194813839.393   194813877.761   151803020.145   145477903.382          43.300          42.900                          46.900  
J07  18568842.234    18568836.723    18568851.512    18568851.645   195159797.169   195159882.067   152072633.568   145736259.845          39.800          45.900                          49.100  
> 2021 12 14 06 38  0.0000000  0 34
G25  23331023.078    23331033.770    23331034.684    23331032.781   122605332.949    95536679.876    95536673.867    91555978.119          41.300          29.300          42.500          46.400  
G26  20610163.648    20610174.035    20610173.922    20610171.289   108307110.606    84395218.928    84395208.931    80878712.191          47.000          50.500          47.900          50.800  
G32  21001023.328    21001032.543    21001033.031    21001030.203   110361097.241    85995717.984    85995708.989    82412551.076          50.200          54.500          49.000          50.500  
G31  20828854.727    20828861.770    20828862.398                   109456355.566    85290708.837    85290712.841                          47.600          50.200          47.200                  
G03  23604446.727    23604456.258    23604456.672    23604455.250   124042172.346    96656302.035    96656298.038    92628948.478          40.200          36.800          41.400          45.500  
G29  23395774.938    23395783.727    23395784.039                   122945608.402    95801824.898    95801825.888                          43.200          32.600          43.000                  
G16  23538218.766    23538227.879                                   123694180.472    96385114.576                                          38.600          24.700                                  
R07  20446044.438    20446042.699    20446049.906   109449273.396   109449269.396    85127055.383          49.500          47.900          44.600  
R08  19491218.969    19491217.695    19491222.801   104374586.567   104374584.568    81180364.839          47.800          47.000          46.200  
R01  22226241.594    22226240.301    22226248.629   118812004.148   118812005.180    92409362.915          42.600          40.800          35.400  
R09  22279959.797    22279959.813    22279965.125   118973703.652   118973736.678    92534910.560          47.000          44.900          44.000  
R10  19903734.914    19903733.781                   106098071.614   106098102.620                          50.400          48.200                  
C21  25087055.219                   130634879.489                          43.000                  
C16  36219140.188    36219140.492   188602572.995   145839459.525          48.300          47.200  
C14  22207220.859    22207217.941   115638831.101    89419326.979          46.300          50.700  
C10  38385126.313    38385124.578   199881428.475   154560996.239          39.500          41.100  
C09  36900445.398    36900442.074   192150304.755   148582794.079          45.300          47.200  
C07  37354401.367    37354396.445   194514170.330   150410694.587          42.400          44.500  
C05  39743071.305    39743068.586   206952604.323   160028869.884          34.700          38.100  
C04  38627740.055    38627736.387   201144777.551   155537888.259          37.900          42.200  
C03  37083242.375    37083237.910   193102167.025   149318831.464          40.700          43.700  
C02  37801464.539    37801459.273   196842147.467   152210813.306          36.300          43.000  
C01  37882722.633    37882721.262   197265281.685   152538018.661          40.900          44.000  
C24  22823695.180                   118848982.559                          48.500                  
C26  22160493.367                   115395512.813                          48.800                  
C06  36011713.688    36011708.258   187522444.484   145004224.574          45.800          47.700  
E24  26045143.609    26045148.742    26045145.996    26045148.598   136868154.497   102206763.000   104873013.653   103539894.622          44.200          43.300          46.300          48.500  
E09  22334682.180    22334687.297    22334684.430    22334687.094   117369546.264    87646109.053    89932517.720    88789316.182          48.200          49.800          51.300          54.200  
E01  25662011.438    25662016.277    25662013.703    25662016.469   134854777.869   100703263.374   103330293.480   102016783.228          46.100          47.600          49.100          52.000  
E04  24267964.570    24267968.555    24267966.277    24267968.918   127529012.740    95232719.808    97717041.127    96474887.765          48.500          50.500          51.100          53.600  
J02  19452625.188    19452622.082    19452634.594    19452634.078   204448434.815   204448496.833   159310515.575   152672590.416          46.700          48.800                          51.100  
J03  18938020.867    18938016.984    18938033.711    18938034.188   199039979.282   199039975.142   155096085.904   148633769.701          41.200          41.100                          45.400  
J01  18535189.648    18535186.918    18535197.875    18535198.215   194806150.832   194806189.200   151797029.059   145472161.930          43.600          43.000                          47.000  
J07  18568457.375    18568452.016    18568466.816    18568466.871   195155753.347   195155838.253   152069482.554   145733240.117          40.300          46.300                          49.300  
> 2021 12 14 06 38 10.0000000  0 34
G25  23336782.078    23336792.492    23336793.645    23336791.543   122635596.521    95560261.870    95560255.865    91578577.546          40.500          29.500          42.600          45.900  
G26  20606345.039    20606355.902    20606355.715    20606353.125   108287045.789    84379584.019    84379574.022    80863728.731          47.300          50.500          48.200          51.200  
G32  21003117.070    21003125.988    21003126.461    21003123.465   110372097.971    86004289.979    86004280.976    82420765.897          49.800          54.500          48.700          50.600  
G31  20828804.641    20828811.344    20828811.441                   109456090.300    85290502.128    85290506.132                          47.500          50.300          47.600                  
G03  23600608.336    23600617.664    23600618.168    23600616.836   124022000.330    96640583.564    96640579.568    92613884.950          40.400          37.100          42.000          45.200  
G29  23393953.234    23393961.512    23393961.961                   122936035.712    95794365.679    95794366.679                          43.300          33.600          42.800                  
G16  23530478.883    23530488.012                                   123653509.579    96353423.021                                          38.800          25.300                                  
R07  20450871.805    20450870.430    20450877.645   109475116.923   109475112.938    85147155.897          48.900          47.300          44.100  
R08  19488815.523    19488813.992    19488819.238   104361715.541   104361713.543    81170354.039          48.300          46.900          45.900  
R01  22218515.313    22218513.605    22218521.742   118770701.156   118770702.152    92377238.377          42.500          41.800          35.500  
R09  22285001.594    22284999.820    22285005.523   119000619.215   119000652.219    92555844.862          46.700          44.600          43.600  
R10  19905217.219    19905214.645                   106105967.783   106105998.795                          50.000          48.300                  
C21  25092549.086                   130663486.229                          43.500                  
C16  36217667.508    36217667.488   188594901.983   145833527.820          48.300          47.000  
C14  22205865.148    22205862.137   115631772.444    89413868.783          46.800          49.800  
C10  38382327.570    38382325.691   199866855.113   154549727.193          39.500          41.500  
C09  36898644.875    36898641.285   192140928.745   148575543.958          45.200          47.300  
C07  37351594.023    37351588.832   194499551.251   150399390.195          42.100          44.800  
C05  39742371.867    39742368.969   206948962.605   160026053.863          35.000          37.800  
C04  38626959.695    38626955.277   201140710.114   155534743.063          38.400          42.600  
C03  37082504.992    37082500.840   193098327.798   149315862.733          40.800          43.900  
C02  37800732.609    37800726.762   196838333.437   152207864.063          36.700          42.600  
C01  37881965.125    37881963.559   197261336.770   152534968.198          40.900          44.100  
C24  22821266.203                   118836333.142                          48.300                  
C26  22162138.211                   115404077.540                          49.300                  
C06  36010155.461    36010149.867   187514328.788   144997949.005          45.600          47.400  
E24  26040320.680    26040325.613    26040323.023    26040325.559   136842809.318   102187836.438   104853593.350   103520721.189          44.300          43.400          46.500          48.600  
E09  22331381.453    22331386.590    22331383.777    22331386.520   117352201.556    87633156.832    89919227.616    88776195.023          48.600          49.800          51.700          53.900  
E01  25665505.508    25665510.230    25665507.965    25665510.555   134873139.457   100716974.955   103344362.756   102030673.647          46.500          48.000          49.500          52.100  
E04  24269740.789    24269744.926    24269742.516    24269745.191   127538347.115    95239690.280    97724193.437    96481949.154          48.200          49.800          50.800          53.800  
J02  19452828.477    19452825.320    19452837.641    19452837.234   204450570.507   204450632.524   159312179.752   152674185.258          47.100          48.500                          51.100  
J03  18937339.266    18937336.121    18937352.289    18937352.953   199032818.120   199032813.979   155090505.812   148628422.134          41.000          41.500                          45.500  
J01  18534457.992    18534455.852    18534466.820    18534467.191   194798464.395   194798502.763   151791039.628   145466422.057          44.200          43.600                          47.300  
J07  18568071.734    18568066.645    18568081.328    18568081.480   195151701.744   195151786.643   152066325.457   145730214.574          39.500          46.000                          48.800  
> 2021 12 14 06 38 20.0000000  0 34
G25  23342542.602    23342553.461    23342554.332    23342552.465   122665870.493    95583851.970    95583845.973    91601184.735          39.700          30.600          42.000          46.500  
G26  20602536.586    20602546.691    20602546.605    20602543.961   108267028.581    84363986.200    84363976.203    80848780.827          47.000          50.300          48.000          51.100  
G32  21005218.258    21005227.270    21005227.652    21005224.809   110383140.439    86012894.494    86012885.491    82429011.892          50.100          54.600          48.800          50.300  
G31  20828757.227    20828763.625    20828763.973                   109455839.465    85290306.669    85290310.673                          47.000          50.200          46.600                  
G03  23596778.633    23596788.797    23596789.137    23596787.797   124001879.070    96624904.668    96624900.679    92598859.340          39.400          37.300          41.700          45.100  
G29  23392141.563    23392149.938    23392149.590                   122926514.271    95786946.388    95786947.396                          43.700          32.800          42.300                  
G16  23522743.469    23522752.152                                   123612856.926    96321745.694                                          40.500          24.700                                  
R07  20455709.867    20455709.047    20455716.000   109501017.456   109501013.478    85167300.743          49.400          47.500          44.200  
R08  19486425.953    19486424.938    19486430.063   104348921.659   104348919.668    81160403.239          48.200          46.900          45.500  
R01  22210794.000    22210792.816    22210800.723   118729427.389   118729428.396    92345136.555          43.300          42.000          35.800  
R09  22290039.711    22290039.195    22290044.602   119027528.910   119027561.930    92576774.626          46.100          44.500          43.300  
R10  19906704.063    19906702.035                   106113895.494   106113926.498                          49.600          48.000                  
C21  25098043.938                   130692100.931                          44.500                  
C16  36216192.898    36216192.961   188587224.860   145827591.378          48.200          47.500  
C14  22204519.164    22204515.895   115624762.069    89408447.913          46.200          49.100  
C10  38379529.109    38379527.723   199852283.912   154538459.838          39.900          41.400  
C09  36896842.094    36896838.926   192131542.488   148568285.915          45.600          47.800  
C07  37348787.453    37348782.367   194484936.532   150388089.173          42.700          44.700  
C05  39741671.070    39741668.047   206945314.283   160023232.765          34.700          37.800  
C04  38626177.086    38626172.957   201136635.912   155531592.634          38.200          42.600  
C03  37081765.922    37081761.938   193094481.688   149312888.684          40.800          44.100  
C02  37799998.945    37799993.461   196834512.782   152204909.693          36.100          42.500  
C01  37881206.555    37881204.504   197257385.119   152531912.531          40.900          44.200  
C24  22818840.164                   118823701.738                          48.100                  
C26  22163785.008                   115412650.759                          48.400                  
C06  36008595.219    36008589.734   187506205.842   144991667.828          45.800          47.600  
E24  26035500.961    26035506.109    26035503.578    26035506.133   136817482.976   102168923.937   104834187.485   103501562.009          44.400          43.000          46.700          48.900  
E09  22328085.430    22328090.316    22328087.430    22328090.215   117334879.338    87620221.418    89905954.754    88763090.881          48.100          50.100          51.200          54.600  
E01  25669000.523    25669005.445    25669003.090    25669005.668   134891506.527   100730690.628   103358436.224   102044568.221          45.700          47.500          48.900          51.800  
E04  24271522.344    24271526.613    24271524.246    24271526.758   127547709.403    95246681.596    97731367.132    96489031.662          48.300          49.800          51.000          53.600  
J02  19453030.625    19453027.645    19453040.371    19453039.723   204452697.050   204452759.074   159313836.807   152675773.268          46.700          49.200                          51.000  
J03  18936657.469    18936653.563    18936669.656    18936670.473   199025649.041   199025644.900   155084919.552   148623068.652          40.500          41.100                          45.000  
J01  18533727.023    18533724.664    18533735.863    18533736.137   194790781.299   194790819.667   151785052.796   145460684.675          43.300          42.900                          47.000  
J07  18567685.688    18567680.234    18567695.191    18567695.316   195147643.410   195147728.315   152063163.126   145727184.008          40.500          46.500                          49.500  
> 2021 12 14 06 38 30.0000000  0 34
G25  23348306.359    23348316.121    23348317.438    23348315.477   122696155.056    95607450.307    95607444.320    91623799.814          39.000          27.200          42.500          46.400  
G26  20598736.047    20598746.500    20598746.570    20598743.957   108247059.324    84348425.753    84348415.756    80833868.736          47.300          50.400          47.700          51.000  
G32  21007327.422    21007336.563    21007336.867    21007334.141   110394224.951    86021531.777    86021522.774    82437289.297          50.000          54.400          49.400          50.400  
G31  20828711.773    20828718.609    20828719.027                   109455603.390    85290122.721    85290126.732                          47.200          50.300          46.800                  
G03  23592959.328    23592969.563    23592969.793    23592968.578   123981808.776    96609265.487    96609261.483    92583871.786          38.900          37.100          41.900          45.300  
G29  23390339.469    23390347.523    23390347.355                   122917044.220    95779567.157    95779568.157                          43.400          32.800          41.700                  
G16  23515010.547    23515020.043                                   123572222.795    96290082.791                                          40.400          23.900                                  
R07  20460558.914    20460557.977    20460565.328   109526975.156   109526971.171    85187490.063          49.400          47.300          44.300  
R08  19484051.188    19484050.289    19484055.281   104336204.905   104336202.913    81150512.438          48.300          46.900          45.200  
R01  22203078.141    22203077.125    22203085.211   118688183.420   118688184.420    92313057.912          44.400          42.400          36.000  
R09  22295078.328    22295077.641    22295082.520   119054433.138   119054466.143    92597700.125          46.600          44.100          42.700  
R10  19908197.711    19908195.555                   106121855.210   106121886.229                          50.300          48.300                  
C21  25103540.711                   130720723.761                          43.900                  
C16  36214717.758    36214717.609   188579541.887   145821650.417          47.900          47.400  
C14  22203181.711    22203179.094   115617800.253    89403064.602          46.100          48.800  
C10  38376731.273    38376729.957   199837715.229   154527194.405          39.200          42.000  
C09  36895038.094    36895034.309   192122146.316   148561020.198          45.100          47.500  
C07  37345981.688    37345976.586   194470326.574   150376791.846          42.400          44.400  
C05  39740970.047    39740966.656   206941659.682   160020406.814          34.400          37.900  
C04  38625393.500    38625389.207   201132555.156   155528437.122          38.000          42.000  
C03  37081026.281    37081022.285   193090628.945   149309909.496          40.900          44.100  
C02  37799263.859    37799258.215   196830685.781   152201950.430          36.500          43.300  
C01  37880446.125    37880444.441   197253427.000   152528851.869          40.900          44.000  
C24  22816418.180                   118811088.596                          48.500                  
C26  22165432.969                   115421232.678                          48.700                  
C06  36007034.188    36007028.293   187498075.954   144985381.280          46.300          47.100  
E24  26030685.063    26030690.238    26030687.797    26030690.371   136792175.793   102150025.742   104814796.298   103482417.319          44.400          43.800          46.800          49.300  
E09  22324793.141    22324798.305    22324795.449    22324798.227   117317579.966    87607303.061    89892699.392    88750004.024          48.400          50.100          51.400          53.800  
E01  25672496.805    25672501.715    25672499.383    25672501.852   134909879.306   100744410.567   103372514.067   102058467.112          45.100          47.400          49.400          52.100  
E04  24273309.328    24273313.539    24273311.145    24273313.707   127557099.848    95253693.933    97738562.401    96496135.464          48.800          49.600          50.900          53.800  
J02  19453232.367    19453229.051    19453241.668    19453240.977   204454814.808   204454876.833   159315487.014   152677354.714          46.800          48.700                          51.200  
J03  18935974.250    18935971.047    18935987.395    18935987.934   199018472.285   199018468.137   155079327.313   148617709.425          40.800          41.100                          45.300  
J01  18532996.273    18532994.238    18533004.973    18533005.543   194783101.863   194783140.231   151779068.823   145454950.030          43.600          42.600                          46.900  
J07  18567298.945    18567293.723    18567308.328    18567308.559   195143578.713   195143663.618   152059995.833   145724148.686          39.900          45.800                          49.400  
> 2021 12 14 06 38 40.0000000  0 34
G25  23354070.539    23354080.902    23354082.176    23354080.238   122726448.942    95631055.911    95631049.924    91646421.853          38.900          27.800          42.200          46.200  
G26  20594944.789    20594955.387    20594955.441    20594952.742   108227136.865    84332901.769    84332891.771    80818991.582          47.300          50.500          47.600          51.000  
G32  21009444.477    21009453.453    21009454.023    21009451.254   110405350.329    86030200.896    86030191.895    82445597.197          49.900          54.200          49.000          50.300  
G31  20828669.820    20828676.234    20828676.457                   109455380.941    85289949.390    85289953.394                          46.700          50.200          46.800                  
G03  23589149.875    23589159.805    23589160.504    23589158.945   123961788.443    96593665.225    96593661.220    92568921.553          39.500          37.100          42.000          45.600  
G29  23388547.188    23388554.613    23388554.883                   122907624.635    95772227.222    95772228.211                          43.300          32.100          40.700                  
G16  23507281.891    23507290.531                                   123531606.038    96258433.411                                          40.000          22.600                                  
R07  20465419.391    20465417.555    20465424.863   109552988.594   109552984.609    85207722.728          49.200          46.800          44.200  
R08  19481690.188    19481689.875    19481694.754   104323564.519   104323562.526    81140681.019          48.600          46.700          45.600  
R01  22195368.539    22195367.547    22195374.883   118646968.216   118646969.205    92281001.649          44.900          42.400          36.100  
R09  22300115.242    22300114.695    22300119.906   119081330.552   119081363.558    92618620.339          47.300          44.800          42.700  
R10  19909695.859    19909694.219                   106129845.556   106129876.568                          49.700          48.000                  
C21  25109038.883                   130749353.537                          43.800                  
C16  36213240.914    36213240.914   188571851.985   145815704.097          48.100          47.200  
C14  22201854.164    22201851.141   115610885.877    89397717.966          45.800          49.700  
C10  38373933.273    38373932.563   199823147.813   154515929.964          39.300          42.500  
C09  36893231.016    36893227.973   192112739.049   148553745.905          44.600          47.300  
C07  37343176.695    37343171.637   194455720.143   150365497.238          43.800          44.400  
C05  39740266.188    39740263.051   206937997.664   160017575.108          34.500          38.100  
C04  38624608.055    38624603.992   201128466.711   155525275.680          37.900          42.300  
C03  37080284.828    37080280.648   193086768.456   149306924.333          40.600          44.000  
C02  37798527.648    37798521.789   196826851.290   152198985.359          36.500          42.400  
C01  37879684.773    37879682.824   197249461.288   152525785.321          40.900          44.100  
C24  22813999.453                   118798492.560                          48.400                  
C26  22167082.328                   115429822.159                          48.000                  
C06  36005471.063    36005465.840   187489937.983   144979088.484          46.400          47.200  
E24  26025872.922    26025878.016    26025875.352    26025878.082   136766886.644   102131141.010   104795418.926   103463286.267          44.400          44.200          46.800          49.600  
E09  22321505.469    22321510.551    22321507.656    22321510.402   117300302.344    87594400.938    89879460.690    88736933.612          48.400          49.500          51.100          54.000  
E01  25675993.844    25675998.891    25675996.414    25675998.922   134928256.583   100758133.854   103386595.357   102072369.404          45.600          47.600          49.500          51.700  
E04  24275101.469    24275105.699    24275103.254    24275105.801   127566517.315    95260726.454    97745778.380    96503259.717          48.600          50.000          51.200          54.300  
J02  19453432.961    19453429.340    19453442.203    19453441.457   204456922.530   204456984.548   159317129.398   152678928.664          46.800          48.900                          51.400  
J03  18935290.602    18935287.008    18935303.602    18935304.152   199011286.738   199011282.598   155073728.224   148612343.649          40.700          41.100                          45.300  
J01  18532265.953    18532263.391    18532274.461    18532274.980   194775424.922   194775463.290   151773086.788   145449217.252          43.600          42.600                          47.300  
J07  18566911.461    18566906.422    18566921.000    18566921.102   195139506.453   195139591.359   152056822.651   145721107.718          40.100          45.800                          48.900  
> 2021 12 14 06 38 50.0000000  0 34
G25  23359837.156    23359847.352    23359848.738    23359846.871   122756752.248    95654668.873    95654662.879    91669050.932          39.400          27.800          42.000          46.400  
G26  20591163.133    20591173.316    20591173.324    20591170.594   108207261.412    84317414.404    84317404.415    80804149.535          47.400          50.700          48.000          51.200  
G32  21011569.531    21011578.441    21011578.977    21011576.141   110416516.798    86038902.039    86038893.036    82453935.787          49.500          54.200          49.100          50.300  
G31  20828629.656    20828636.340    20828636.590                   109455172.090    85289786.654    85289790.658                          48.000          50.200          46.600                  
G03  23585349.359    23585359.672    23585360.250    23585358.488   123941818.304    96578104.077    96578100.080    92554008.785          40.200          37.500          42.700          44.700  
G29  23386764.000    23386772.348    23386772.199                   122898255.696    95764926.756    95764927.745                          43.600          32.600          42.500                  
G16  23499556.352    23499564.426                                   123491006.958    96226797.796                                          40.600          22.900                                  
R07  20470289.266    20470287.809    20470294.703   109579058.165   109579054.165    85227999.047          49.000          46.800          44.700  
R08  19479344.734    19479343.695    19479348.555   104311000.902   104310998.898    81130909.321          48.900          47.200          46.100  
R01  22187663.867    22187662.602    22187670.250   118605781.973   118605782.999    92248967.914          45.000          43.100          36.800  
R09  22305151.211    22305150.633    22305155.605   119108221.286   119108254.312    92639535.350          46.900          44.300          43.000  
R10  19911200.734    19911198.813                   106137866.517   106137897.521                          49.800          49.000                  
C21  25114538.344                   130777990.352                          42.400                  
C16  36211762.648    36211762.750   188564155.317   145809752.542          48.000          47.300  
C14  22200535.211    22200532.574   115604019.180    89392408.204          46.000          49.200  
C10  38371136.117    38371135.223   199808581.864   154504666.669          38.800          42.300  
C09  36891422.727    36891419.230   192103320.861   148546463.166          45.400          47.700  
C07  37340372.695    37340367.359   194441117.521   150354205.586          43.200          44.600  
C05  39739562.273    39739558.559   206934328.453   160014737.840          35.000          38.500  
C04  38623822.328    38623817.539   201124370.759   155522108.441          38.100          41.800  
C03  37079542.180    37079537.703   193082900.405   149303933.318          40.800          43.800  
C02  37797789.555    37797784.176   196823009.471   152196014.623          36.400          42.600  
C01  37878921.836    37878920.027   197245488.186   152522713.063          40.900          44.600  
C24  22811583.813                   118785913.764                          48.500                  
C26  22168733.125                   115438419.310                          49.400                  
C06  36003907.023    36003901.473   187481792.122   144972789.591          45.700          47.000  
E24  26021064.172    26021069.145    26021066.477    26021069.168   136741615.701   102112269.878   104776055.506   103444168.993          44.200          44.300          46.700          49.100  
E09  22318221.844    22318226.906    22318224.098    22318226.750   117283046.689    87581515.228    89866238.833    88723879.822          48.100          49.600          51.400          54.500  
E01  25679491.852    25679496.895    25679494.465    25679496.867   134946638.514   100771860.628   103400680.212   102086275.212          46.000          47.900          49.400          52.200  
E04  24276898.758    24276902.961    24276900.449    24276903.074   127575962.000    95267779.300    97753015.216    96510404.556          48.600          50.000          51.500          53.900  
J02  19453632.453    19453629.242    19453641.828    19453641.211   204459020.447   204459082.465   159318764.146   152680495.299          47.300          48.500                          51.300  
J03  18934606.008    18934603.340    18934619.043    18934619.551   199004092.618   199004088.471   155068122.466   148606971.475          41.100          41.600                          45.300  
J01  18531535.625    18531533.582    18531544.488    18531544.949   194767750.650   194767789.018   151767106.840   145443486.467          42.900          42.500                          47.300  
J07  18566523.406    18566517.914    18566532.773    18566532.852   195135426.918   195135511.824   152053643.800   145718061.321          39.600          45.900                          49.200  
> 2021 12 14 06 39  0.0000000  0 34
G25  23365605.234    23365615.598    23365616.844    23365615.145   122787064.852    95678289.070    95678283.080    91691686.960          39.500          27.000          42.300          47.400  
G26  20587389.719    20587399.996    20587400.047    20587397.309   108187432.972    84301963.682    84301953.692    80789342.588          47.500          50.900          48.100          50.700  
G32  21013701.766    21013711.332    21013711.684    21013708.957   110427724.273    86047635.129    86047626.134    82462305.006          49.900          54.300          49.100          50.800  
G31  20828592.594    20828599.344    20828599.637                   109454976.859    85289634.527    85289638.531                          46.700          50.200          47.100                  
G03  23581558.602    23581569.133    23581569.270    23581567.723   123921898.353    96562582.038    96562578.041    92539133.490          40.100          38.300          41.700          44.900  
G29  23384990.609    23384999.047    23384999.375                   122888937.529    95757665.853    95757666.854                          43.100          32.600          41.800                  
G16  23491833.305    23491842.148                                   123450425.638    96195176.054                                          41.000          22.500                                  
R07  20475169.023    20475168.309    20475175.313   109605183.645   109605179.667    85248318.847          48.500          47.000          44.800  
R08  19477012.922    19477011.566    19477016.754   104298513.673   104298511.683    81121197.039          48.500          46.900          45.700  
R01  22179964.398    22179963.113    22179970.988   118564624.979   118564625.993    92216956.927          44.600          42.900          36.600  
R09  22310185.289    22310184.766    22310190.438   119135105.250   119135138.258    92660445.088          46.000          44.300          43.000  
R10  19912711.141    19912709.207                   106145918.018   106145949.015                          49.300          48.500                  
C21  25120038.414                   130806634.086                          42.300                  
C16  36210283.227    36210283.547   188556451.905   145803795.775          47.800          46.600  
C14  22199225.930    22199223.184   115597200.111    89387135.263          46.000          50.300  
C10  38368339.461    38368338.113   199794017.479   154493404.597          39.200          42.400  
C09  36889611.938    36889608.305   192093891.802   148539172.029          45.800          47.300  
C07  37337568.914    37337563.688   194426518.577   150342916.753          42.400          44.500  
C05  39738855.430    39738852.480   206930651.890   160011894.884          34.300          38.300  
C04  38623033.742    38623029.566   201120267.303   155518935.390          38.300          42.600  
C03  37078797.742    37078793.832   193079024.732   149300936.409          40.800          43.700  
C02  37797050.438    37797045.176   196819160.280   152193038.191          36.700          42.400  
C01  37878157.484    37878155.730   197241507.622   152519635.040          40.700          44.200  
C24  22809171.641                   118773352.212                          48.000                  
C26  22170385.711                   115447024.089                          49.400                  
C06  36002341.039    36002335.477   187473638.338   144966484.572          45.700          46.300  
E24  26016258.445    26016263.824    26016260.980    26016263.754   136716363.009   102093412.378   104756706.074   103425065.522          44.100          44.700          46.900          49.500  
E09  22314942.531    22314947.512    22314944.645    22314947.297   117265813.062    87568645.954    89853033.846    88710842.698          48.000          50.000          51.100          53.700  
E01  25682990.906    25682995.676    25682993.281    25682995.707   134965024.990   100785590.790   103414768.558   102100184.471          46.200          47.500          49.600          52.000  
E04  24278701.203    24278705.480    24278702.879    24278705.500   127585433.842    95274852.427    97760272.854    96517569.940          48.400          50.200          51.200          54.300  
J02  19453831.117    19453827.926    19453840.434    19453839.926   204461108.508   204461170.532   159320391.204   152682054.564          47.300          48.900                          51.100  
J03  18933921.078    18933917.273    18933932.973    18933933.820   198996889.870   198996885.729   155062509.980   148601592.848          41.000          41.600                          45.700  
J01  18530805.789    18530803.758    18530814.844    18530814.883   194760079.071   194760117.447   151761128.987   145437757.689          43.500          42.800                          47.300  
J07  18566134.625    18566129.195    18566143.969    18566143.895   195131339.944   195131424.850   152050459.146   145715009.362          39.500          46.200                          48.900  
> 2021 12 14 06 39 10.0000000  0 34
G25  23371376.117    23371385.988    23371386.906    23371385.504   122817388.324    95701917.737    95701911.747    91714331.096          39.100          27.100          42.300          46.400  
G26  20583625.328    20583636.059    20583636.039    20583633.313   108167653.229    84286550.905    84286540.916    80774572.014          47.500          51.000          48.000          50.900  
G32  21015842.805    21015852.047    21015852.711    21015849.836   110438974.435    86056401.486    86056392.491    82470706.098          49.800          54.100          49.000          51.200  
G31  20828558.242    20828565.227    20828565.547                   109454796.916    85289494.314    85289498.318                          46.400          50.400          47.500                  
G03  23577778.430    23577788.379    23577788.785    23577786.934   123902030.298    96547100.444    96547096.437    92524296.956          40.400          37.900          42.000          44.200  
G29  23383227.680    23383236.066    23383236.113                   122879671.982    95750445.965    95750446.961                          43.200          31.900          41.600                  
G16  23484114.461    23484123.004                                   123409863.735    96163569.422                                          40.200          22.200                                  
R07  20480060.180    20480059.570    20480066.477   109631366.553   109631362.546    85268683.327          48.400          47.000          44.000  
R08  19474695.203    19474694.156    19474699.297   104286104.692   104286102.709    81111545.608          48.700          47.000          45.700  
R01  22172271.383    22172269.918    22172277.695   118523499.011   118523499.999    92184970.067          44.900          43.000          36.800  
R09  22315218.758    22315217.961    22315223.973   119161984.041   119162017.046    92681350.809          46.400          44.100          43.600  
R10  19914227.648    19914225.605                   106154001.816   106154032.826                          49.600          47.900                  
C21  25125541.297                   130835286.362                          42.400                  
C16  36208803.086    36208803.250   188548743.383   145797835.053          48.200          47.500  
C14  22197925.828    22197923.027   115590430.342    89381900.452          45.800          50.500  
C10  38365543.109    38365542.074   199779456.210   154482144.924          38.700          42.200  
C09  36887799.102    36887795.770   192084453.502   148531873.743          44.200          47.200  
C07  37334766.563    37334761.375   194411925.054   150331632.135          42.300          45.100  
C05  39738148.625    39738145.262   206926969.831   160009047.703          34.100          38.600  
C04  38622244.469    38622240.094   201116158.013   155515757.836          38.300          43.000  
C03  37078052.477    37078048.398   193075143.129   149297934.908          40.800          44.000  
C02  37796310.070    37796304.598   196815305.422   152190057.389          36.800          42.700  
C01  37877391.648    37877390.031   197237521.302   152516552.567          41.100          44.500  
C24  22806762.680                   118760809.485                          48.500                  
C26  22172039.844                   115455638.108                          49.200                  
C06  36000774.070    36000768.484   187465478.344   144960174.745          46.000          47.200  
E24  26011456.953    26011462.152    26011459.367    26011462.125   136691130.202   102074569.718   104737371.859   103405977.091          44.000          44.700          46.900          49.300  
E09  22311667.555    22311672.555    22311669.664    22311672.387   117248603.157    87555794.406    89839847.037    88697823.517          48.300          49.800          50.800          54.400  
E01  25686490.953    25686495.711    25686493.258    25686495.727   134983417.638   100799325.563   103428861.628   102114098.388          45.600          47.800          49.800          52.300  
E04  24280509.164    24280513.449    24280510.770    24280513.414   127594934.515    95281947.082    97767552.587    96524757.133          48.900          49.800          51.200          54.000  
J02  19454028.883    19454025.801    19454038.426    19454037.910   204463188.395   204463250.420   159322011.899   152683607.735          46.500          48.600                          51.400  
J03  18933234.984    18933231.203    18933247.301    18933247.902   198989680.227   198989676.094   155056892.128   148596209.077          41.300          41.300                          45.200  
J01  18530076.180    18530074.188    18530085.141    18530085.574   194752411.815   194752450.184   151755154.507   145432032.140          43.400          43.000                          46.900  
J07  18565745.063    18565739.719    18565754.551    18565754.668   195127247.300   195127332.205   152047270.075   145711953.173          39.700          47.300                          48.900  
> 2021 12 14 06 39 20.0000000  0 34
G25  23377148.828    23377158.465    23377159.195    23377157.824   122847721.782    95725554.188    95725548.197    91736982.688          39.700          27.900          43.000          47.000  
G26  20579870.570    20579881.094    20579881.059    20579878.500   108147921.415    84271175.479    84271165.482    80759837.226          47.300          50.900          47.900          50.800  
G32  21017991.563    21018000.781    21018001.383    21017998.590   110450266.504    86065200.499    86065191.504    82479138.483          49.800          54.200          49.100          50.700  
G31  20828527.086    20828533.613    20828534.031                   109454631.487    85289365.419    85289369.423                          46.800          50.300          46.500                  
G03  23574007.586    23574017.301    23574017.441    23574015.969   123882213.425    96531658.730    96531654.733    92509498.637          40.300          38.000          42.600          44.400  
G29  23381473.914    23381482.746    23381482.734                   122870457.937    95743266.205    95743267.202                          42.000          32.000          42.700                  
G16  23476399.742    23476408.082                                   123369320.773    96131977.534                                          38.900          22.500                                  
R07  20484962.297    20484961.238    20484968.320   109657605.952   109657601.960    85289091.738          48.400          46.500          44.000  
R08  19472392.797    19472391.547    19472396.582   104273773.598   104273771.600    81101954.755          48.000          47.200          45.700  
R01  22164583.703    22164581.781    22164589.691   118482403.493   118482404.518    92153006.887          44.000          42.800          36.900  
R09  22320252.023    22320250.766    22320256.211   119188856.807   119188889.810    92702251.829          46.600          44.500          43.000  
R10  19915750.219    19915748.230                   106162116.996   106162147.994                          49.700          48.100                  
C21  25131044.875                   130863946.287                          42.100                  
C16  36207321.516    36207321.785   188541029.022   145791869.821          47.400          48.100  
C14  22196634.992    22196632.180   115583709.146    89376703.193          45.800          50.000  
C10  38362747.180    38362746.020   199764897.349   154470887.099          39.200          42.200  
C09  36885984.953    36885981.332   192075005.199   148524567.721          45.100          47.300  
C07  37331964.680    37331959.863   194397336.116   150320351.046          43.000          44.900  
C05  39737439.891    39737437.320   206923281.334   160006195.515          34.600          38.800  
C04  38621454.023    38621450.117   201112042.039   155512575.095          38.500          42.200  
C03  37077305.867    37077301.531   193071254.779   149294928.205          40.800          44.000  
C02  37795568.039    37795562.871   196811444.139   152187071.599          36.500          42.100  
C01  37876624.805    37876623.320   197233528.402   152513465.006          40.900          44.500  
C24  22804357.320                   118748284.801                          48.700                  
C26  22173695.641                   115464260.544                          48.400                  
C06  35999205.680    35999200.098   187457311.338   144953859.497          46.600          47.300  
E24  26006659.117    26006664.305    26006661.348    26006664.113   136665916.559   102055741.366   104718052.341   103386903.154          44.700          44.600          47.000          49.000  
E09  22308396.969    22308401.883    22308399.063    22308401.816   117231416.241    87542960.021    89826677.841    88684821.729          48.200          49.500          51.200          53.900  
E01  25689991.742    25689996.695    25689994.160    25689996.758   135001815.620   100813064.318   103442958.788   102128016.349          45.400          48.300          49.200          52.300  
E04  24282322.328    24282326.676    24282324.039    24282326.672   127604463.268    95289062.703    97774853.833    96531965.566          48.800          49.900          51.600          54.600  
J02  19454226.047    19454222.770    19454235.477    19454234.773   204465259.236   204465321.262   159323625.546   152685154.148          46.600          48.400                          51.500  
J03  18932548.242    18932544.609    18932560.414    18932561.297   198982462.897   198982458.749   155051268.272   148590819.551          40.900          41.500                          45.800  
J01  18529347.086    18529344.688    18529355.895    18529356.277   194744748.151   194744786.520   151749182.813   145426309.271          43.300          43.000                          47.300  
J07  18565355.000    18565349.844    18565364.535    18565364.680   195123148.194   195123233.100   152044075.973   145708892.154          40.000          46.200                          49.000  
> 2021 12 14 06 39 30.0000000  0 34
G25  23382922.570    23382932.371    23382933.430    23382931.844   122878064.243    95749197.655    95749191.673    91759641.013          39.700          28.400          42.600          47.500  
G26  20576124.672    20576135.332    20576135.324    20576132.547   108128236.688    84255836.739    84255826.742    80745137.611          47.200          50.900          47.800          50.800  
G32  21020148.227    21020157.430    21020158.117    21020155.191   110461599.605    86074031.482    86074022.487    82487601.505          49.800          54.100          48.000          50.500  
G31  20828498.102    20828504.734    20828505.148                   109454479.655    85289247.110    85289251.122                          46.800          50.300          47.200                  
G03  23570245.781    23570255.777    23570256.371    23570254.609   123862446.929    96516256.266    96516252.280    92494737.938          40.200          38.200          41.600          45.100  
G29  23379730.344    23379738.914    23379738.824                   122861294.693    95736126.031    95736127.035                          42.400          32.000          41.400                  
G16  23468688.055    23468696.184                                   123328795.760    96100399.635                                          38.800          22.200                                  
R07  20489874.422    20489873.270    20489880.434   109683900.806   109683896.799    85309543.286          47.900          47.000          45.200  
R08  19470104.156    19470103.301    19470108.207   104261519.151   104261517.160    81092423.520          48.800          46.800          45.700  
R01  22156900.742    22156899.789    22156907.688   118441337.557   118441338.559    92121066.729          44.500          42.200          37.200  
R09  22325282.586    22325281.902    22325287.316   119215722.608   119215755.610    92723147.439          47.000          44.500          42.700  
R10  19917278.219    19917276.293                   106170262.352   106170293.355                          49.200          48.000                  
C21  25136549.945                   130892612.896                          41.900                  
C16  36205838.734    36205839.285   188533307.934   145785899.387          47.800          48.000  
C14  22195353.547    22195350.574   115577035.647    89371542.821          45.900          49.900  
C10  38359951.484    38359950.270   199750340.027   154459630.465          39.000          42.000  
C09  36884168.359    36884164.965   192065546.033   148517253.300          44.800          47.600  
C07  37329163.938    37329158.598   194382750.926   150309072.867          42.900          45.000  
C05  39736729.828    39736727.297   206919586.593   160003338.748          34.600          38.400  
C04  38620662.086    38620657.973   201107918.594   155509386.591          38.100          43.000  
C03  37076558.430    37076553.332   193067358.853   149291915.629          41.000          44.200  
C02  37794825.320    37794820.242   196807575.490   152184080.127          37.000          42.500  
C01  37875856.828    37875854.770   197229528.054   152510371.681          41.000          44.100  
C24  22801955.461                   118735777.272                          48.600                  
C26  22175353.031                   115472890.513                          48.500                  
C06  35997635.750    35997630.203   187449136.482   144947538.188          47.000          47.200  
E24  26001864.203    26001869.727    26001866.891    26001869.594   136640721.174   102036926.658   104698746.813   103367843.029          45.300          44.200          47.000          49.800  
E09  22305130.563    22305135.559    22305132.676    22305135.488   117214251.495    87530142.195    89813525.641    88671836.716          47.800          49.300          51.500          54.100  
E01  25693493.469    25693498.648    25693495.938    25693498.652   135020218.001   100826806.355   103457059.320   102141937.631          45.900          47.800          49.100          51.900  
E04  24284140.758    24284145.023    24284142.531    24284145.121   127614019.148    95296198.590    97782175.874    96539194.526          48.600          49.800          51.300          54.000  
J02  19454421.969    19454418.973    19454431.590    19454431.078   204467320.236   204467382.261   159325231.520   152686693.208          46.400          48.300                          51.100  
J03  18931860.719    18931856.789    18931872.926    18931873.773   198975237.020   198975232.879   155045637.769   148585423.657          41.700          41.100                          45.400  
J01  18528618.039    18528616.125    18528627.008    18528627.508   194737087.146   194737125.515   151743213.204   145420588.393          43.700          42.900                          47.000  
J07  18564964.477    18564958.910    18564973.813    18564973.734   195119041.703   195119126.608   152040876.115   145705825.625          38.600          45.800                          49.100  
> 2021 12 14 06 39 40.0000000  0 34
G25  23388698.570    23388708.488    23388709.027    23388707.715   122908416.477    95772848.738    95772842.756    91782306.630          40.100          28.500          42.300          46.600  
G26  20572387.742    20572398.637    20572398.688    20572395.809   108108599.900    84240535.356    84240525.359    80730473.782          47.500          50.800          48.500          51.200  
G32  21022312.883    21022322.113    21022322.516    21022319.785   110472974.519    86082895.055    86082886.052    82496095.760          49.600          54.000          48.900          50.500  
G31  20828471.906    20828478.602    20828478.988                   109454342.301    85289140.082    85289144.087                          47.600          50.300          47.200                  
G03  23566493.820    23566504.215    23566504.594    23566502.980   123842731.708    96500893.743    96500889.746    92480015.519          40.000          37.000          41.300          44.000  
G29  23377996.453    23378004.586    23378005.031                   122852183.157    95729026.139    95729027.128                          43.100          32.100          40.700                  
G16  23460980.172    23460988.254                                   123288289.653    96068836.492                                          39.200          22.600                                  
R07  20494796.438    20494795.914    20494802.980   109710252.067   109710248.090    85330038.711          48.200          47.000          44.400  
R08  19467830.688    19467829.305    19467834.398   104249342.446   104249340.441    81082952.746          48.800          46.600          45.600  
R01  22149224.602    22149223.059    22149231.316   118400302.307   118400303.314    92089150.437          44.800          42.500          36.900  
R09  22330312.188    22330311.613    22330317.180   119242582.193   119242615.207    92744038.230          46.400          44.600          42.500  
R10  19918811.742    19918810.043                   106178439.028   106178470.034                          49.300          47.900                  
C21  25142056.758                   130921286.966                          41.300                  
C16  36204354.883    36204355.105   188525581.023   145779924.448          47.500          47.800  
C14  22194081.727    22194078.539   115570410.702    89366419.984          45.900          50.700  
C10  38357156.297    38357155.129   199735785.126   154448375.686          38.900          41.600  
C09  36882349.813    36882346.434   192056076.931   148509931.182          44.500          47.300  
C07  37326364.047    37326358.527   194368170.354   150297798.247          43.200          44.700  
C05  39736019.500    39736016.336   206915883.475   160000475.019          34.600          38.100  
C04  38619868.969    38619865.074   201103788.443   155506192.891          38.200          42.600  
C03  37075808.344    37075803.879   193063456.156   149288897.821          40.700          43.000  
C02  37794081.594    37794075.949   196803700.320   152181083.603          36.600          42.300  
C01  37875087.133    37875085.566   197225521.157   152507273.292          40.800          43.700  
C24  22799556.930                   118723287.708                          48.300                  
C26  22177012.180                   115481528.747                          48.300                  
C06  35996064.641    35996059.152   187440954.676   144941211.496          46.000          47.200  
E24  25997073.453    25997078.848    25997075.828    25997078.715   136615544.959   102018126.255   104679455.963   103348797.404          45.200          45.500          47.100          49.700  
E09  22301868.789    22301873.641    22301870.770    22301873.535   117197109.845    87517341.616    89800391.128    88658869.167          48.900          49.800          51.400          54.200  
E01  25696996.109    25697001.555    25696998.785    25697001.512   135038625.593   100840552.278   103471163.841   102155862.856          45.100          47.800          49.200          52.100  
E04  24285964.570    24285968.727    24285966.223    24285968.871   127623603.073    95303355.413    97789519.398    96546444.702          48.500          50.400          51.500          54.500  
J02  19454617.336    19454614.000    19454626.898    19454626.227   204469372.190   204469434.216   159326830.452   152688225.517          46.700          48.400                          50.500  
J03  18931172.445    18931168.727    18931184.953    18931185.555   198968003.426   198967999.285   155040001.231   148580021.985          40.800          41.700                          45.800  
J01  18527889.555    18527887.320    18527898.520    18527898.785   194729429.692   194729468.060   151737246.350   145414870.163          43.800          43.400                          47.000  
J07  18564573.391    18564567.500    18564582.145    18564582.152   195114928.735   195115013.634   152037671.207   145702754.254          38.800          45.800                          48.900  
> 2021 12 14 06 39 50.0000000  0 34
G25  23394475.773    23394485.770    23394486.609    23394485.219   122938777.792    95796506.907    95796500.917    91804979.027          39.900          28.400          42.600          47.300  
G26  20568660.234    20568670.961    20568671.102    20568668.148   108089010.475    84225270.877    84225260.880    80715845.321          47.500          51.000          48.800          51.000  
G32  21024485.148    21024494.398    21024495.082    21024492.254   110484390.677    86091790.754    86091781.758    82504620.813          49.700          53.900          48.500          50.900  
G31  20828448.383    20828455.105    20828455.379                   109454218.692    85289043.761    85289047.765                          47.000          50.300          47.300                  
G03  23562751.727    23562762.148    23562762.398    23562760.992   123823067.133    96485570.702    96485566.706    92465330.933          40.000          38.100          40.800          44.600  
G29  23376272.711    23376280.297    23376280.430                   122843122.776    95721966.118    95721967.107                          43.900          32.300          40.800                  
G16  23453275.336    23453283.453                                   123247801.990    96037287.706                                          39.400          22.500                                  
R07  20499729.445    20499728.813    20499736.070   109736658.731   109736654.754    85350577.208          48.300          46.400          44.900  
R08  19465570.469    19465569.855    19465574.836   104237243.087   104237241.096    81073542.131          48.500          46.500          45.600  
R01  22141552.828    22141552.316    22141560.395   118359297.364   118359298.357    92057257.707          44.500          42.700          37.600  
R09  22335341.008    22335340.742    22335345.660   119269434.960   119269467.943    92764923.700          46.400          45.300          41.800  
R10  19920351.727    19920349.801                   106186645.867   106186676.871                          49.600          47.900                  
C21  25147564.414                   130949967.832                          41.200                  
C16  36202869.773    36202869.945   188517847.653   145773944.515          47.400          46.500  
C14  22192818.539    22192815.523   115563833.711    89361334.238          45.500          50.100  
C10  38354362.078    38354360.078   199721231.934   154437122.241          39.200          41.700  
C09  36880529.508    36880526.074   192046597.193   148502600.865          44.900          47.400  
C07  37323564.766    37323559.328   194353593.697   150286526.668          42.900          45.300  
C05  39735307.172    39735303.789   206912174.274   159997606.843          35.400          39.100  
C04  38619074.547    38619070.281   201099651.002   155502993.564          38.300          42.200  
C03  37075057.211    37075053.047   193059546.121   149285874.340          40.900          43.900  
C02  37793335.539    37793330.465   196799818.095   152178081.624          36.600          42.800  
C01  37874316.258    37874314.605   197221507.021   152504169.308          40.900          44.600  
C24  22797161.484                   118710815.471                          47.500                  
C26  22178672.516                   115490174.666                          48.500                  
C06  35994491.945    35994486.277   187432765.218   144934878.885          45.200          45.500  
E24  25992286.133    25992291.449    25992288.457    25992291.344   136590387.272   101999339.696   104660179.314   103329765.807          45.300          44.600          46.700          49.800  
E09  22298611.016    22298615.984    22298613.176    22298615.871   117179990.672    87504557.816    89787273.842    88645918.627          48.300          49.300          50.800          53.900  
E01  25700499.734    25700505.262    25700502.547    25700505.238   135057037.670   100854301.561   103485271.796   102169791.477          45.300          48.200          49.400          52.200  
E04  24287793.648    24287797.668    24287795.266    24287797.840   127633214.356    95310532.665    97796883.882    96553715.571          48.800          49.800          51.100          53.900  
J02  19454811.602    19454808.414    19454821.117    19454820.551   204471414.445   204471476.470   159328421.822   152689750.577          46.400          48.400                          50.900  
J03  18930483.414    18930479.906    18930495.715    18930496.410   198960761.523   198960757.383   155034358.220   148574614.107          41.400          42.000                          45.300  
J01  18527161.320    18527158.969    18527170.035    18527170.402   194721775.183   194721813.551   151731281.799   145409154.127          43.800          43.000                          46.800  
J07  18564180.875    18564175.844    18564190.590    18564190.590   195110808.605   195110893.504   152034460.715   145699677.536          38.800          45.800                          48.700  
> 2021 12 14 06 40  0.0000000  0 34
G25  23400255.211    23400265.117    23400266.453    23400264.813   122969149.359    95820173.055    95820167.062    91827659.080          39.800          28.700          42.600          47.600  
G26  20564941.695    20564952.484    20564952.578    20564949.680   108069469.725    84210044.328    84210034.339    80701253.219          47.400          51.000          48.500          50.700  
G32  21026665.961    21026674.934    21026675.563    21026672.734   110495849.409    86100719.637    86100710.635    82513177.653          49.700          53.700          49.200          50.300  
G31  20828427.789    20828434.395    20828434.590                   109454110.186    85288959.218    85288963.215                          46.600          50.400          46.900                  
G03  23559019.766    23559029.688    23559030.145    23559028.902   123803454.648    96470288.256    96470284.252    92450685.257          40.600          37.300          40.900          44.900  
G29  23374558.422    23374566.031    23374566.188                   122834114.975    95714947.061    95714948.057                          43.300          31.900          41.000                  
G16  23445574.305    23445582.863                                   123207334.186    96005754.385                                          40.400          22.300                                  
R07  20504673.352    20504672.352    20504679.637   109763122.259   109763118.267    85371159.938          48.500          47.000          44.500  
R08  19463326.039    19463325.016    19463330.152   104225222.345   104225220.354    81064192.666          49.000          47.000          45.700  
R01  22133888.938    22133887.379    22133895.508   118318324.177   118318325.175    92025389.684          43.900          42.600          37.400  
R09  22340368.984    22340368.398    22340373.406   119296282.176   119296315.208    92785804.870          45.900          44.300          41.600  
R10  19921897.250    19921895.250                   106194884.607   106194915.618                          49.600          48.300                  
C21  25153074.203                   130978656.710                          41.800                  
C16  36201383.750    36201383.883   188510109.201   145767960.653          47.600          47.600  
C14  22191564.758    22191561.898   115557306.005    89356286.602          45.900          49.900  
C10  38351567.469    38351565.926   199706681.885   154425871.240          38.900          41.900  
C09  36878706.711    36878703.641   192037108.189   148495263.366          45.300          47.000  
C07  37320766.086    37320761.027   194339022.390   150275259.214          43.000          44.300  
C05  39734594.086    39734590.172   206908459.449   159994734.308          34.600          38.800  
C04  38618278.570    38618274.719   201095507.649   155499789.661          38.300          43.200  
C03  37074305.297    37074300.969   193055630.014   149282846.165          40.800          44.100  
C02  37792588.336    37792583.691   196795930.058   152175075.152          36.700          42.800  
C01  37873544.383    37873542.816   197217487.029   152501060.795          40.900          44.300  
C24  22794770.438                   118698361.868                          48.100                  
C26  22180334.438                   115498829.528                          48.500                  
C06  35992918.125    35992912.344   187424569.513   144928541.441          46.900          47.200  
E24  25987502.484    25987507.879    25987504.906    25987507.762   136565249.485   101980567.997   104640917.920   103310749.256          45.700          44.800          46.700          49.500  
E09  22295357.797    22295362.844    22295360.043    22295362.742   117162895.423    87491791.888    89774174.889    88632986.183          48.200          49.900          51.400          53.900  
E01  25704004.898    25704010.172    25704007.324    25704010.051   135075455.579   100868055.186   103499384.212   102183724.494          45.400          47.700          49.400          52.300  
E04  24289627.945    24289632.113    24289629.734    24289632.262   127642854.343    95317731.353    97804270.363    96561008.156          48.700          49.400          51.500          54.000  
J02  19455005.156    19455001.926    19455014.563    19455014.059   204473448.361   204473510.387   159330006.695   152691269.415          46.700          48.300                          50.800  
J03  18929793.477    18929790.145    18929806.117    18929806.902   198953512.676   198953508.535   155028709.799   148569201.050          41.300          41.600                          45.400  
J01  18526433.352    18526431.164    18526442.508    18526442.625   194714124.916   194714163.284   151725320.552   145403441.266          43.800          42.800                          47.100  
J07  18563788.320    18563783.285    18563797.953    18563798.070   195106682.706   195106767.606   152031245.735   145696596.517          38.800          46.000                          48.500  
> 2021 12 14 06 40 10.0000000  0 34
G25  23406036.844    23406046.875    23406047.922    23406046.617   122999531.964    95843847.809    95843841.818    91850347.380          38.800          26.500          42.400          46.800  
G26  20561232.695    20561243.332    20561243.129    20561240.590   108049978.558    84194856.418    84194846.421    80686698.139          47.500          50.900          48.100          50.900  
G32  21028854.695    21028863.727    21028864.500    21028861.461   110507351.525    86109682.317    86109673.322    82521766.896          49.800          53.700          48.700          50.600  
G31  20828410.422    20828416.965    20828417.336                   109454017.549    85288887.037    85288891.048                          46.700          50.300          46.800                  
G03  23555297.938    23555307.531    23555308.004    23555306.984   123783895.148    96455047.081    96455043.088    92436079.137          41.400          37.600          41.000          44.600  
G29  23372854.250    23372862.355    23372862.672                   122825160.619    95707969.667    95707970.651                          43.700          32.800          41.400                  
G16  23437878.313    23437885.879                                   123166887.157    95974237.267                                          39.900          21.800                                  
R07  20509627.750    20509626.957    20509633.867   109789643.438   109789639.453    85391787.522          48.400          46.900          43.700  
R08  19461096.172    19461095.098    19461100.148   104213281.167   104213279.184    81054905.089          49.200          46.700          45.600  
R01  22126230.008    22126228.652    22126236.449   118277383.544   118277384.558    91993546.986          44.700          42.900          36.100  
R09  22345395.516    22345394.469    22345399.930   119323124.508   119323157.523    92806682.229          46.000          44.300          41.900  
R10  19923448.547    19923446.836                   106203155.542   106203186.531                          49.500          47.800                  
C21  25158584.977                   131007354.385                          42.000                  
C16  36199897.016    36199897.008   188502366.491   145761973.492          48.200          47.800  
C14  22190320.938    22190318.004   115550828.449    89351277.745          45.800          50.200  
C10  38348773.906    38348772.316   199692135.785   154414623.295          39.700          42.500  
C09  36876883.164    36876879.871   192027610.792   148487919.381          44.900          47.100  
C07  37317969.250    37317964.113   194324457.239   150263996.530          41.800          44.600  
C05  39733879.320    39733876.324   206904739.711   159991857.976          35.100          37.700  
C04  38617482.266    38617477.949   201091359.115   155496581.758          38.200          42.800  
C03  37073551.703    37073547.832   193051708.736   149279813.989          40.800          44.300  
C02  37791841.383    37791836.207   196792037.074   152172064.860          36.500          41.800  
C01  37872771.367    37872769.691   197213461.991   152497948.377          40.900          44.100  
C24  22792382.180                   118685927.696                          48.800                  
C26  22181998.531                   115507494.129                          48.300                  
C06  35991343.109    35991337.469   187416368.449   144922199.862          46.500          47.600  
E24  25982722.922    25982728.305    25982725.281    25982728.129   136540132.494   101961811.826   104621672.450   103291748.431          45.300          44.500          46.200          48.900  
E09  22292109.445    22292114.375    22292111.691    22292114.344   117145824.969    87479044.476    89761094.935    88620072.500          47.700          49.300          51.300          54.400  
E01  25707510.961    25707516.266    25707513.496    25707516.137   135093880.073   100881813.740   103513501.686   102197662.510          46.000          47.800          49.300          52.200  
E04  24291468.031    24291472.156    24291469.719    24291472.309   127652523.900    95324952.124    97811679.497    96568323.106          49.100          49.900          51.000          54.000  
J02  19455198.031    19455194.641    19455207.270    19455206.762   204475474.769   204475536.793   159331585.713   152692782.644          47.200          48.300                          51.200  
J03  18929103.219    18929099.844    18929115.660    18929116.523   198946257.724   198946253.575   155023056.626   148563783.435          41.200          41.400                          45.900  
J01  18525706.055    18525703.785    18525715.078    18525715.039   194706479.812   194706518.180   151719363.325   145397732.257          43.600          43.000                          47.000  
J07  18563395.484    18563389.797    18563404.746    18563404.797   195102551.834   195102636.748   152028026.885   145693511.786          38.700          46.300                          48.500  
> 2021 12 14 06 40 20.0000000  0 34
G25  23411820.398    23411830.434    23411831.297    23411830.043   123029924.430    95867530.239    95867524.245    91873043.037          38.600          26.600          42.000          46.700  
G26  20557532.750    20557543.473    20557543.410    20557540.770   108030535.835    84179706.252    84179696.256    80672179.230          47.200          50.900          48.000          51.100  
G32  21031051.656    21031060.648    21031061.191    21031058.301   110518895.880    86118677.921    86118668.918    82530387.676          49.500          53.600          48.700          50.300  
G31  20828395.289    20828401.988    20828402.297                   109453939.671    85288826.351    85288830.362                          47.100          50.300          47.000                  
G03  23551586.219    23551594.980    23551595.293    23551594.793   123764387.501    96439846.308    96439842.318    92421511.741          41.100          37.400          40.500          45.100  
G29  23371160.273    23371168.637    23371168.852                   122816258.583    95701033.021    95701034.017                          42.800          32.800          42.800                  
G16  23430184.703    23430193.250                                   123126459.889    95942735.543                                          40.800          21.700                                  
R07  20514592.656    20514591.758    20514598.824   109816220.735   109816216.758    85412458.750          48.800          47.800          44.300  
R08  19458881.391    19458879.629    19458884.871   104201418.413   104201416.422    81045678.499          48.600          46.600          45.600  
R01  22118577.227    22118575.449    22118583.398   118236474.646   118236475.664    91961728.964          44.500          43.000          36.800  
R09  22350421.289    22350420.473    22350425.391   119349960.910   119349993.936    92827554.993          46.800          44.400          42.000  
R10  19925005.750    19925004.313                   106211457.694   106211488.714                          49.400          47.900                  
C21  25164098.156                   131036059.616                          43.100                  
C16  36198408.656    36198409.055   188494618.401   145755982.181          48.100          47.900  
C14  22189086.180    22189083.465   115544399.928    89346306.805          46.300          49.500  
C10  38345981.102    38345979.840   199677592.612   154403377.591          39.500          42.400  
C09  36875057.484    36875054.207   192018103.840   148480567.999          44.900          47.000  
C07  37315173.070    37315167.793   194309897.169   150252737.774          42.800          44.600  
C05  39733163.344    39733160.637   206901014.041   159988977.063          34.700          38.600  
C04  38616684.102    38616680.176   201087204.363   155493369.032          38.100          42.800  
C03  37072797.563    37072793.488   193047781.081   149276776.889          40.900          44.100  
C02  37791092.492    37791087.352   196788138.002   152169049.850          37.200          42.600  
C01  37871997.063    37871995.281   197209430.781   152494831.185          41.000          44.400  
C24  22789998.117                   118673511.820                          48.700                  
C26  22183663.813                   115516167.319                          48.500                  
C06  35989766.813    35989761.246   187408160.835   144915853.219          46.500          47.200  
E24  25977947.344    25977952.383    25977949.316    25977952.215   136515035.100   101943070.284   104602441.993   103272762.438          44.800          45.300          46.300          49.500  
E09  22288865.594    22288870.434    22288867.816    22288870.422   117128778.202    87466314.752    89748033.125    88607176.730          48.500          49.800          51.000          53.800  
E01  25711018.258    25711023.258    25711020.594    25711023.219   135112309.948   100895576.304   103527623.273   102211604.585          45.400          48.000          49.100          52.600  
E04  24293313.547    24293317.551    24293315.184    24293317.773   127662221.853    95332194.100    97819110.398    96575659.545          48.500          49.500          51.600          53.900  
J02  19455389.922    19455386.895    19455399.371    19455398.875   204477492.502   204477554.527   159333157.972   152694289.397          46.800          48.400                          51.400  
J03  18928412.180    18928408.781    18928424.910    18928425.590   198938995.516   198938991.375   155017397.803   148558360.400          41.000          41.300                          45.500  
J01  18524978.898    18524977.004    18524987.910    18524988.109   194698838.677   194698877.045   151713409.184   145392026.207          43.600          43.400                          47.000  
J07  18563001.438    18562996.863    18563011.336    18563011.574   195098414.895   195098499.801   152024803.300   145690422.515          39.100          45.900                          48.800  
> 2021 12 14 06 40 30.0000000  0 34
G25  23417605.602    23417615.566    23417616.523    23417615.176   123060326.283    95891219.964    95891213.984    91895745.694          38.800          26.700          42.200          47.200  
G26  20553842.344    20553852.781    20553852.867    20553850.055   108011141.294    84164593.623    84164583.634    80657696.302          47.600          51.000          47.800          50.700  
G32  21033256.352    21033265.328    21033265.910    21033263.113   110530482.195    86127706.203    86127697.208    82539039.785          49.500          53.600          48.800          50.800  
G31  20828383.328    20828389.711    20828390.563                   109453876.248    85288776.938    85288780.942                          47.500          50.300          46.400                  
G03  23547883.039    23547892.809    23547893.293    23547892.379   123744931.479    96424685.775    96424681.782    92406982.898          40.500          37.500          40.200          45.600  
G29  23369476.703    23369484.758    23369484.621                   122807408.660    95694137.010    95694138.018                          42.300          33.600          42.800                  
G16  23422495.234    23422503.730                                   123086052.178    95911249.032                                          39.700          22.800                                  
R07  20519568.023    20519567.063    20519574.184   109842853.814   109842849.830    85433173.356          48.300          47.300          44.200  
R08  19456680.367    19456679.301    19456684.262   104189633.982   104189631.991    81036512.822          49.100          47.000          45.300  
R01  22110929.680    22110929.262    22110936.680   118195597.260   118195598.282    91929935.439          45.100          43.100          36.700  
R09  22355445.633    22355444.926    22355450.043   119376790.895   119376823.890    92848422.745          46.200          44.400          42.100  
R10  19926569.945    19926567.938                   106219790.841   106219821.853                          49.800          48.100                  
C21  25169612.094                   131064772.054                          43.100                  
C16  36196920.109    36196920.066   188486864.677   145749986.503          48.200          47.700  
C14  22187861.055    22187858.211   115538020.211    89341373.602          46.100          49.400  
C10  38343188.570    38343187.266   199663051.868   154392133.771          39.300          42.600  
C09  36873229.758    36873226.547   192008587.093   148473209.051          44.600          46.700  
C07  37312377.758    37312372.844   194295341.826   150241482.670          42.700          44.700  
C05  39732446.594    39732443.996   206897282.044   159986091.241          34.300          38.100  
C04  38615885.398    38615880.719   201083043.043   155490151.237          38.200          42.300  
C03  37072042.234    37072038.066   193043846.839   149273734.681          40.700          44.500  
C02  37790342.656    37790337.398   196784232.628   152166029.975          36.500          42.300  
C01  37871221.938    37871219.844   197205393.114   152491709.006          40.900          44.200  
C24  22787617.008                   118661113.942                          48.400                  
C26  22185330.938                   115524848.756                          48.300                  
C06  35988189.273    35988183.699   187399946.437   144909501.321          46.000          47.000  
E24  25973174.914    25973180.184    25973176.965    25973180.000   136489957.104   101924343.232   104583226.402   103253791.115          45.200          45.100          45.900          49.300  
E09  22285625.938    22285631.066    22285628.320    22285631.004   117111754.932    87453602.564    89734989.315    88594298.735          48.400          50.100          50.900          53.800  
E01  25714526.023    25714531.320    25714528.574    25714531.258   135130744.885   100909342.650   103541748.745   102225550.494          46.000          47.700          49.200          52.000  
E04  24295164.508    24295168.281    24295166.023    24295168.578   127671947.927    95339457.067    97826562.836    96583017.248          48.500          49.800          51.200          54.100  
J02  19455581.063    19455577.977    19455590.797    19455589.934   204479501.280   204479563.306   159334723.257   152695789.461          46.600          48.600                          51.300  
J03  18927720.688    18927716.953    18927733.105    18927733.605   198931725.839   198931721.698   155011733.148   148552931.788          40.800          41.400                          46.200  
J01  18524252.023    18524250.453    18524261.578    18524261.668   194691201.250   194691239.618   151707457.943   145386322.937          43.200          42.800                          47.300  
J07  18562607.492    18562602.320    18562616.949    18562617.094   195094271.585   195094356.490   152021574.747   145687328.487          39.700          46.300                          49.400  
> 2021 12 14 06 40 40.0000000  0 34
G25  23423392.086    23423402.805    23423403.852    23423402.027   123090737.000    95914916.614    95914910.625    91918454.976          39.200          27.900          43.000          47.200  
G26  20550160.734    20550171.141    20550171.242    20550168.438   107991794.423    84149518.157    84149508.152    80643248.979          47.300          50.900          48.200          51.000  
G32  21035469.156    21035478.027    21035478.766    21035475.797   110542109.928    86136766.774    86136757.779    82547722.829          49.300          53.500          49.000          50.500  
G31  20828374.281    20828380.227    20828380.715                   109453826.832    85288738.433    85288742.438                          46.700          50.200          46.300                  
G03  23544190.492    23544200.129    23544200.285    23544199.809   123725526.669    96409565.133    96409561.144    92392492.292          40.400          36.600          40.300          46.000  
G29  23367802.211    23367810.555    23367810.660                   122798610.513    95687281.294    95687282.299                          41.800          33.100          43.000                  
G16  23414809.289    23414817.656                                   123045663.492    95879777.380                                          39.600          21.800                                  
R07  20524553.805    20524552.594    20524559.855   109869542.110   109869538.104    85453930.915          49.300          47.300          43.700  
R08  19454494.313    19454492.789    19454498.156   104177927.238   104177925.260    81027407.583          48.300          46.700          45.600  
R01  22103289.148    22103287.828    22103295.254   118154751.201   118154752.216    91898166.291          44.700          43.000          36.700  
R09  22360468.602    22360467.652    22360473.320   119403613.784   119403646.794    92869284.983          46.000          44.500          42.100  
R10  19928138.703    19928136.707                   106228153.820   106228184.825                          50.100          48.400                  
C21  25175126.781                   131093491.121                          43.600                  
C16  36195429.734    36195429.750   188479104.830   145743986.102          48.400          47.300  
C14  22186645.563    22186642.195   115531688.715    89336477.694          45.500          49.600  
C10  38340396.875    38340395.563   199648513.204   154380891.563          39.400          42.500  
C09  36871399.844    36871397.094   191999060.003   148465842.107          45.400          47.400  
C07  37309583.313    37309578.117   194280790.750   150230230.866          42.600          44.900  
C05  39731728.609    39731725.910   206893543.252   159983200.168          34.600          38.700  
C04  38615084.250    38615080.496   201078874.704   155486928.006          38.200          43.400  
C03  37071285.508    37071280.953   193039905.444   149270686.944          40.700          43.900  
C02  37789591.023    37789585.938   196780320.331   152163004.750          36.300          43.000  
C01  37870445.297    37870443.422   197201348.498   152488581.455          41.100          44.300  
C24  22785239.359                   118648733.475                          48.100                  
C26  22186999.688                   115533537.868                          48.300                  
C06  35986610.531    35986605.059   187391724.747   144903143.791          46.300          47.900  
E24  25968406.445    25968411.652    25968408.242    25968411.383   136464897.986   101905630.272   104564025.274   103234834.071          44.900          44.900          46.300          49.800  
E09  22282391.242    22282395.996    22282393.328    22282395.980   117094754.663    87440907.561    89721963.148    88581438.151          48.800          50.200          50.800          53.600  
E01  25718034.969    25718040.172    25718037.461    25718040.152   135149184.296   100923112.346   103555877.643   102239499.791          45.100          47.400          50.000          52.400  
E04  24297020.578    24297024.344    24297022.145    24297024.633   127681701.564    95346740.628    97834036.399    96590395.812          48.600          49.800          51.300          54.000  
J02  19455771.219    19455768.180    19455780.770    19455780.133   204481500.537   204481562.570   159336281.130   152697282.423          46.700          48.400                          50.800  
J03  18927027.953    18927024.535    18927041.227    18927041.328   198924448.100   198924443.952   155006062.227   148547497.154          40.800          42.200                          45.500  
J01  18523525.617    18523523.949    18523535.160    18523535.355   194683566.993   194683605.368   151701509.167   145380622.026          43.400          42.900                          47.000  
J07  18562212.758    18562207.238    18562221.980    18562222.051   195090121.323   195090206.229   152018340.783   145684229.270          38.700          45.800                          48.800  
> 2021 12 14 06 40 50.0000000  0 34
G25  23429181.297    23429192.434    23429192.945    23429191.102   123121158.534    95938621.699    95938615.702    91941172.345          40.200          28.600          43.600          46.500  
G26  20546488.477    20546499.188    20546498.957    20546496.277   107972497.411    84134481.531    84134471.526    80628838.881          47.400          51.000          48.700          51.100  
G32  21037689.773    21037699.047    21037699.469    21037696.773   110553781.240    86145861.300    86145852.298    82556438.411          49.400          53.600          48.800          50.500  
G31  20828367.094    20828374.023    20828374.793                   109453793.397    85288712.385    85288716.382                          47.500          50.400          46.600                  
G03  23540508.398    23540517.715    23540518.008    23540517.512   123706175.242    96394486.084    96394482.087    92378041.546          40.900          37.700          41.000          45.700  
G29  23366137.977    23366146.695    23366146.637                   122789866.310    95680467.646    95680468.643                          42.100          32.900          43.100                  
G16  23407127.578    23407136.082                                   123005296.126    95848322.341                                          39.700          22.200                                  
R07  20529549.297    20529548.945    20529556.254   109896287.754   109896283.753    85474733.050          49.100          47.300          44.500  
R08  19452323.094    19452321.664    19452326.965   104166300.767   104166298.768    81018364.764          48.300          47.100          45.700  
R01  22095653.742    22095652.594    22095660.680   118113938.643   118113939.643    91866423.188          44.400          42.500          35.900  
R09  22365491.313    22365490.039    22365495.328   119430431.883   119430464.880    92890143.477          45.900          44.000          42.100  
R10  19929712.930    19929711.566                   106236549.150   106236580.154                          50.200          48.100                  
C21  25180643.922                   131122218.846                          43.700                  
C16  36193938.430    36193938.785   188471341.020   145737982.631          48.000          48.000  
C14  22185438.859    22185436.004   115525407.676    89331620.793          46.100          48.900  
C10  38337606.055    38337604.668   199633978.690   154369652.587          38.700          42.200  
C09  36869568.734    36869565.703   191989524.793   148458468.883          44.700          47.000  
C07  37306790.023    37306785.109   194266246.052   150218984.000          42.900          44.700  
C05  39731009.297    39731007.438   206889799.773   159980305.485          34.500          38.400  
C04  38614283.031    38614278.938   201074701.457   155483700.980          38.200          43.000  
C03  37070527.758    37070523.383   193035959.065   149267635.363          40.700          44.700  
C02  37788839.031    37788833.734   196776403.350   152159975.897          36.500          42.200  
C01  37869667.328    37869666.074   197197299.039   152485450.159          40.900          43.900  
C24  22782865.555                   118636372.594                          48.200                  
C26  22188670.508                   115542236.797                          48.200                  
C06  35985030.461    35985024.879   187383497.968   144896782.323          46.400          46.800  
E24  25963641.539    25963646.977    25963643.590    25963646.754   136439859.877   101886933.003   104544840.247   103215892.919          44.800          44.900          45.900          49.300  
E09  22279160.969    22279165.742    22279163.078    22279165.719   117077779.630    87428231.405    89708956.302    88568596.651          48.200          49.600          50.800          53.800  
E01  25721545.094    25721550.293    25721547.543    25721550.289   135167630.323   100936886.974   103570011.605   102253454.085          45.600          47.700          49.300          51.800  
E04  24298882.258    24298886.191    24298883.816    24298886.344   127691484.979    95354046.418    97841532.776    96597796.896          48.800          49.900          51.400          53.900  
J02  19455960.734    19455957.543    19455970.277    19455969.703   204483492.463   204483554.487   159337833.272   152698769.896          46.600          48.400                          51.300  
J03  18926334.977    18926331.969    18926347.785    18926348.223   198917164.569   198917160.428   155000386.781   148542058.197          40.800          41.800                          45.300  
J01  18522799.789    18522797.996    18522809.191    18522809.457   194675938.113   194675976.489   151695564.582   145374925.136          43.300          42.800                          46.800  
J07  18561817.234    18561812.184    18561826.824    18561826.906   195085966.403   195086051.309   152015103.184   145681126.581          39.000          45.800                          48.800  
> 2021 12 14 06 41  0.0000000  0 34
G25  23434973.063    23434983.680    23434983.641    23434982.117   123151590.450    95962334.867    95962328.878    91963897.469          40.600          30.400          44.100          47.200  
G26  20542825.844    20542836.523    20542836.641    20542833.625   107953249.886    84119483.462    84119473.466    80614465.736          47.500          51.000          48.200          50.900  
G32  21039918.914    21039928.316    21039928.699    21039926.055   110565495.713    86154989.450    86154980.447    82565186.224          49.500          53.600          48.700          50.200  
G31  20828363.719    20828370.605    20828371.164                   109453775.595    85288698.520    85288702.516                          46.400          50.200          46.600                  
G03  23536836.055    23536845.609    23536846.109    23536845.180   123686876.830    96379448.359    96379444.355    92363630.400          41.100          38.300          41.600          45.800  
G29  23364484.492    23364492.871    23364492.555                   122781175.542    95673695.617    95673696.614                          42.800          33.600          43.100                  
G16  23399450.281    23399458.328                                   122964949.797    95816883.672                                          38.700          22.500                                  
R07  20534557.148    20534556.070    20534563.258   109923090.267   109923086.273    85495579.449          49.000          47.300          44.400  
R08  19450166.352    19450165.180    19450170.391   104154753.792   104154751.794    81009383.793          48.300          46.700          45.600  
R01  22088024.625    22088024.219    22088032.414   118073159.288   118073160.276    91834705.911          44.000          41.800          36.400  
R09  22370511.766    22370511.273    22370516.793   119457244.635   119457277.611    92910997.833          46.700          44.600          42.500  
R10  19931294.359    19931292.523                   106244976.197   106245007.201                          49.700          48.200                  
C21  25186162.133                   131150954.796                          43.800                  
C16  36192446.852    36192447.016   188463572.848   145731975.789          48.200          47.700  
C14  22184242.641    22184239.500   115519176.652    89326802.567          45.500          49.200  
C10  38334815.398    38334813.961   199619448.043   154358416.585          39.600          42.500  
C09  36867736.516    36867733.105   191979981.028   148451089.037          45.100          47.500  
C07  37303998.313    37303993.047   194251707.379   150207741.774          42.700          45.200  
C05  39730290.023    39730287.816   206886051.347   159977406.966          34.100          37.700  
C04  38613480.961    38613476.422   201070522.923   155480469.870          38.100          42.900  
C03  37069768.961    37069764.355   193032007.288   149264579.595          40.800          44.600  
C02  37788085.625    37788080.563   196772481.211   152156943.051          36.400          42.900  
C01  37868889.000    37868886.906   197193244.345   152482314.813          41.000          44.400  
C24  22780495.375                   118624030.854                          48.200                  
C26  22190342.867                   115550945.089                          48.800                  
C06  35983449.992    35983444.055   187375265.632   144890416.563          46.400          47.300  
E24  25958880.891    25958886.242    25958882.777    25958886.039   136414842.448   101868251.176   104525671.069   103196967.418          45.100          44.900          45.700          49.200  
E09  22275935.328    22275940.262    22275937.527    22275940.219   117060829.444    87415573.802    89695968.504    88555773.947          48.400          49.800          51.200          54.000  
E01  25725056.781    25725061.641    25725059.023    25725061.605   135186082.462   100950666.169   103584150.263   102267413.009          45.700          47.700          49.600          52.100  
E04  24300749.469    24300753.570    24300751.184    24300753.652   127701297.703    95361374.101    97849051.617    96605220.159          49.100          49.900          51.300          54.100  
J02  19456149.703    19456146.215    19456159.063    19456158.305   204485476.640   204485538.665   159339379.395   152700251.593          46.600          48.500                          51.100  
J03  18925641.297    18925638.410    18925654.520    18925654.695   198909874.806   198909870.657   154994706.473   148536614.571          40.800          41.400                          45.700  
J01  18522074.578    18522072.566    18522083.727    18522083.832   194668314.190   194668352.559   151689623.869   145369231.944          43.000          42.900                          46.800  
J07  18561421.578    18561416.008    18561430.785    18561430.988   195081806.335   195081891.240   152011861.582   145678020.037          40.700          46.300                          48.500  
> 2021 12 14 06 41 10.0000000  0 34
G25  23440765.508    23440776.402    23440776.887    23440775.109   123182032.865    95986056.225    95986050.230    91986630.432          41.000          30.700          43.500          46.300  
G26  20539172.992    20539183.164    20539182.930    20539180.391   107934052.057    84104524.129    84104514.132    80600129.711          47.400          51.000          47.800          50.900  
G32  21042156.586    21042165.594    21042166.168    21042163.430   110577253.570    86164151.417    86164142.415    82573966.438          49.300          53.500          48.000          51.100  
G31  20828363.508    20828370.281    20828370.855                   109453773.587    85288696.954    85288700.958                          46.800          50.200          46.700                  
G03  23533173.320    23533183.336    23533183.891    23533182.836   123667631.729    96364452.175    96364448.179    92349259.048          40.900          38.900          41.800          45.900  
G29  23362840.617    23362849.082    23362849.293                   122772538.492    95666965.479    95666966.468                          42.900          32.500          42.800                  
G16  23391776.328    23391784.578                                   122924624.709    95785461.572                                          38.700          22.300                                  
R07  20539574.320    20539573.875    20539580.746   109949949.642   109949945.642    85516470.060          49.600          47.900          44.000  
R08  19448025.188    19448024.008    19448029.012   104143286.993   104143285.010    81000465.167          48.400          46.900          45.600  
R01  22080403.844    22080401.879    22080409.605   118032413.531   118032414.548    91803014.787          43.900          41.600          36.000  
R09  22375532.492    22375531.895    22375537.047   119484052.168   119484085.181    92931848.141          47.100          45.900          42.300  
R10  19932881.359    19932879.145                   106253435.050   106253466.062                          49.500          47.800                  
C21  25191683.023                   131179699.078                          43.600                  
C16  36190954.391    36190954.430   188455800.539   145725965.746          48.000          47.300  
C14  22183055.484    22183052.449   115512995.928    89322023.241          45.400          50.000  
C10  38332025.531    38332024.082   199604921.418   154347183.682          39.900          42.100  
C09  36865902.031    36865898.758   191970428.934   148443702.750          44.900          47.200  
C07  37301207.125    37301202.324   194237174.938   150196504.373          42.300          45.000  
C05  39729569.688    39729566.816   206882298.012   159974504.643          34.100          38.500  
C04  38612677.461    38612673.250   201066339.261   155477234.808          38.400          43.000  
C03  37069008.844    37069004.574   193028050.353   149261519.853          40.700          44.200  
C02  37787331.531    37787326.348   196768554.171   152153906.428          36.600          42.600  
C01  37868109.133    37868107.516   197189184.644   152479175.592          40.800          44.500  
C24  22778129.047                   118611708.440                          48.400                  
C26  22192016.695                   115559662.937                          48.100                  
C06  35981867.781    35981862.227   187367028.046   144884046.740          45.700          46.600  
E24  25954124.375    25954129.582    25954126.059    25954129.289   136389845.919   101849584.957   104506517.894   103178057.721          45.300          44.900          46.100          50.000  
E09  22272714.641    22272719.527    22272716.824    22272719.492   117043904.432    87402934.989    89682999.988    88542970.286          48.500          49.800          51.000          53.900  
E01  25728569.133    25728574.293    25728571.645    25728574.129   135204540.885   100964450.058   103598293.726   102281376.690          45.300          47.300          49.400          52.100  
E04  24302622.391    24302626.422    24302623.965    24302626.566   127711139.979    95368723.853    97856593.104    96612665.774          49.100          49.900          51.400          54.400  
J02  19456337.711    19456334.535    19456347.188    19456346.402   204487453.238   204487515.271   159340919.602   152701727.627          46.700          48.600                          51.100  
J03  18924947.281    18924943.715    18924959.895    18924960.301   198902579.044   198902574.896   154989021.493   148531166.476          40.800          41.300                          45.800  
J01  18521349.539    18521347.645    18521358.809    18521359.074   194660695.457   194660733.832   151683687.188   145363542.631          43.000          42.600                          47.000  
J07  18561025.086    18561020.145    18561034.762    18561034.875   195077641.348   195077726.255   152008616.141   145674909.831          40.800          47.100                          49.500  
> 2021 12 14 06 41 20.0000000  0 34
G25  23446560.422    23446571.512    23446572.160    23446570.070   123212485.771    96009785.759    96009779.765    92009371.232          40.700          30.000          44.300          46.100  
G26  20535529.234    20535539.453    20535539.398    20535536.609   107914904.078    84089603.635    84089593.638    80585830.901          47.600          51.100          47.600          50.700  
G32  21044402.484    21044411.395    21044412.000    21044409.141   110589054.879    86173347.239    86173338.237    82582779.100          49.500          53.500          48.300          49.400  
G31  20828366.242    20828372.945    20828373.453                   109453787.561    85288707.846    85288711.851                          46.900          50.300          47.000                  
G03  23529521.055    23529531.141    23529531.863    23529530.684   123648440.059    96349497.633    96349493.629    92334927.620          41.000          38.800          41.500          45.700  
G29  23361207.148    23361215.777    23361215.789                   122763955.378    95660277.335    95660278.331                          43.300          31.800          42.500                  
G16  23384107.273    23384115.570                                   122884321.105    95754056.233                                          39.600          22.300                                  
R07  20544602.414    20544601.855    20544608.996   109976865.888   109976861.888    85537404.904          48.900          47.600          44.600  
R08  19445899.164    19445897.570    19445902.680   104131900.273   104131898.275    80991608.822          48.400          46.800          45.600  
R01  22072787.336    22072785.344    22072793.676   117991701.763   117991702.793    91771350.077          43.400          41.600          36.700  
R09  22380551.219    22380551.008    22380556.270   119510854.563   119510887.578    92952694.460          46.600          45.300          42.100  
R10  19934473.977    19934472.289                   106261925.731   106261956.736                          50.000          48.300                  
C21  25197204.695                   131208451.732                          43.700                  
C16  36189460.875    36189461.195   188448024.231   145719952.616          48.000          47.200  
C14  22181878.313    22181875.109   115506865.563    89317282.855          45.300          49.500  
C10  38329236.734    38329235.234   199590398.938   154335953.998          38.900          42.300  
C09  36864066.031    36864062.715   191960868.677   148436310.159          45.300          47.300  
C07  37298417.719    37298412.707   194222648.834   150185271.887          43.200          44.700  
C05  39728847.031    39728845.074   206878539.940   159971598.683          34.800          37.800  
C04  38611872.852    38611869.074   201062150.594   155473995.856          38.200          42.400  
C03  37068247.914    37068243.617   193024088.319   149258456.167          40.700          43.900  
C02  37786576.477    37786571.500   196764622.311   152150866.064          36.500          42.800  
C01  37867328.398    37867326.887   197185120.041   152476032.583          40.900          44.300  
C24  22775766.570                   118599405.434                          48.200                  
C26  22193692.805                   115568390.365                          47.700                  
C06  35980284.875    35980279.301   187358785.282   144877672.911          45.600          47.300  
E24  25949371.781    25949376.840    25949373.375    25949376.570   136364870.412   101830934.435   104487380.833   103159163.932          45.600          44.800          46.000          48.900  
E09  22269498.742    22269503.711    22269500.891    22269503.590   117027004.710    87390315.072    89670050.848    88530185.755          48.200          49.800          51.000          53.900  
E01  25732082.734    25732087.938    25732085.285    25732087.855   135223005.669   100978238.694   103612442.068   102295345.180          45.500          47.700          49.400          52.100  
E04  24304501.031    24304505.004    24304502.539    24304505.133   127721011.873    95376095.722    97864157.281    96620133.802          48.800          49.800          51.600          54.000  
J02  19456524.953    19456522.012    19456534.492    19456533.828   204489422.373   204489484.398   159342453.990   152703198.090          46.700          48.500                          51.000  
J03  18924252.766    18924248.793    18924265.039    18924265.379   198895277.359   198895273.211   154983331.893   148525713.953          40.600          40.900                          45.500  
J01  18520625.117    18520623.035    18520634.516    18520634.691   194653081.978   194653120.352   151677754.599   145357857.236          43.200          42.300                          46.500  
J07  18560628.383    18560623.254    18560638.000    18560638.066   195073471.528   195073556.434   152005366.933   145671796.003          40.100          46.300                          48.500  
> 2021 12 14 06 41 30.0000000  0 34
G25  23452357.469    23452368.418    23452368.688    23452366.902   123242948.286    96033522.771    96033516.774    92032119.203          40.400          30.300          43.900          45.800  
G26  20531894.242    20531904.918    20531904.883    20531902.289   107895805.118    84074721.341    84074711.337    80571568.703          47.600          51.200          48.700          51.100  
G32  21046656.391    21046665.293    21046665.805    21046662.898   110600898.798    86182576.263    86182567.268    82591623.583          49.500          53.500          48.500          49.900  
G31  20828371.906    20828378.359    20828378.754                   109453816.592    85288730.466    85288734.470                          46.900          50.300          46.500                  
G03  23525879.734    23525889.215    23525889.867    23525888.621   123629301.033    96334584.110    96334580.113    92320635.486          41.400          38.800          41.300          45.700  
G29  23359584.398    23359592.246    23359592.527                   122755425.391    95653630.613    95653631.618                          41.600          32.500          42.400                  
G16  23376441.445    23376449.434                                   122844038.390    95722667.133                                          39.700          22.900                                  
R07  20549642.070    20549640.445    20549647.426   110003837.983   110003833.998    85558383.200          49.100          47.700          44.000  
R08  19443787.078    19443786.086    19443791.090   104120593.041   104120591.050    80982814.311          48.900          47.200          45.700  
R01  22065177.219    22065175.691    22065183.660   117951023.267   117951024.295    91739711.261          44.000          41.900          36.400  
R09  22385569.883    22385568.750    22385574.363   119537650.890   119537683.894    92973536.044          47.000          45.100          42.200  
R10  19936072.906    19936070.816                   106270447.453   106270478.451                          49.700          48.100                  
C21  25202727.055                   131237211.859                          41.800                  
C16  36187966.531    36187966.898   188440243.154   145713935.794          48.400          47.000  
C14  22180710.375    22180707.359   115500784.796    89312580.814          45.500          49.600  
C10  38326448.508    38326447.172   199575879.831   154324726.929          40.000          42.200  
C09  36862228.414    36862224.965   191951299.426   148428910.611          45.800          47.300  
C07  37295629.039    37295623.926   194208128.251   150174043.658          42.800          45.500  
C05  39728123.930    39728122.445   206874776.371   159968688.438          34.000          38.800  
C04  38611067.727    38611063.449   201057956.155   155470752.449          38.200          43.000  
C03  37067485.477    37067481.836   193020120.419   149255387.938          40.600          43.800  
C02  37785820.250    37785815.215   196760684.808   152147821.341          36.700          42.300  
C01  37866546.891    37866545.074   197181049.707   152472885.151          40.900          44.300  
C24  22773407.383                   118587120.993                          48.000                  
C26  22195370.461                   115577126.565                          48.200                  
C06  35978701.055    35978695.129   187350536.548   144871294.472          46.000          46.400  
E24  25944622.313    25944627.996    25944624.488    25944627.660   136339915.081   101812298.976   104468259.225   103140285.401          44.700          44.900          45.400          49.300  
E09  22266287.500    22266292.508    22266289.652    22266292.324   117010129.527    87377713.474    89657120.515    88517419.786          48.400          49.800          51.000          54.300  
E01  25735597.383    25735602.707    25735599.949    25735602.637   135241475.913   100992031.405   103626594.586   102309317.790          45.300          47.600          49.400          51.800  
E04  24306384.938    24306389.102    24306386.578    24306389.180   127730912.607    95383489.127    97871743.557    96627623.640          48.800          49.800          51.500          54.400  
J02  19456711.555    19456708.289    19456721.055    19456720.348   204491383.236   204491445.262   159343981.940   152704662.374          46.900          48.400                          51.000  
J03  18923557.102    18923554.035    18923569.965    18923570.203   198887969.005   198887964.856   154977637.100   148520256.454          40.600          41.000                          44.700  
J01  18519901.398    18519899.027    18519910.012    18519910.492   194645472.984   194645511.352   151671825.513   145352175.194          42.900          42.900                          46.800  
J07  18560231.203    18560225.902    18560240.652    18560240.645   195069296.056   195069380.962   152002113.325   145668677.965          40.400          46.600                          49.800  
> 2021 12 14 06 41 40.0000000  0 34
G25  23458156.750    23458167.191    23458167.473    23458165.813   123273422.373    96057268.798    96057262.800    92054875.821          40.100          30.400          43.600          46.200  
G26  20528270.016    20528280.250    20528280.355    20528277.555   107876757.292    84059878.885    84059868.881    80557344.683          47.500          51.100          47.600          50.800  
G32  21048918.242    21048927.668    21048928.281    21048925.207   110612787.473    86191840.161    86191831.166    82600501.482          49.000          53.400          48.500          50.400  
G31  20828380.930    20828387.133    20828387.746                   109453862.744    85288766.429    85288770.433                          47.000          50.300          47.000                  
G03  23522247.766    23522257.434    23522258.199    23522256.746   123610216.825    96319713.286    96319709.289    92306384.290          40.900          38.400          40.000          45.600  
G29  23357971.203    23357979.555    23357979.734                   122746950.720    95647026.986    95647027.984                          42.500          31.100          42.200                  
G16  23368779.859    23368788.148                                   122803778.551    95691295.854                                          39.900          22.900                                  
R07  20554690.500    20554689.809    20554696.801   110030868.171   110030864.179    85579406.670          49.400          47.400          44.300  
R08  19441690.984    19441689.703    19441694.988   104109367.591   104109365.621    80974083.404          48.700          46.400          45.500  
R01  22057573.789    22057572.949    22057580.883   117910380.257   117910381.274    91708100.030          43.200          41.200          35.600  
R09  22390587.367    22390585.949    22390591.465   119564443.320   119564476.340    92994374.597          46.900          44.700          41.800  
R10  19937677.344    19937675.480                   106279001.914   106279032.918                          49.800          47.500                  
C21  25208252.359                   131265981.450                          42.100                  
C16  36186471.906    36186472.172   188432459.334   145707916.847          48.000          47.500  
C14  22179552.414    22179549.609   115494755.683    89307918.721          45.700          49.400  
C10  38323661.211    38323659.598   199561366.118   154313504.023          40.200          42.100  
C09  36860389.313    36860385.988   191941723.245   148421505.708          45.100          47.100  
C07  37292842.258    37292837.090   194193615.271   150162821.313          42.500          44.900  
C05  39727401.344    39727398.602   206871009.297   159965775.500          34.400          39.000  
C04  38610261.336    38610256.941   201053757.977   155467506.147          38.100          42.300  
C03  37066722.969    37066718.809   193016148.700   149252316.758          40.700          43.700  
C02  37785063.914    37785058.453   196756743.737   152144773.862          36.600          42.900  
C01  37865764.453    37865763.012   197176975.724   152469734.887          40.900          44.000  
C24  22771051.828                   118574857.156                          48.100                  
C26  22197050.508                   115585873.543                          48.400                  
C06  35977115.586    35977110.125   187342283.920   144864913.014          45.700          47.000  
E24  25939878.094    25939883.387    25939880.070    25939883.047   136314982.100   101793680.211   104449154.745   103121423.777          44.200          44.500          45.500          48.500  
E09  22263081.250    22263086.320    22263083.391    22263086.164   116993281.002    87365131.783    89644210.605    88504673.992          48.300          50.000          50.700          54.100  
E01  25739113.648    25739118.941    25739116.098    25739118.840   135259953.651   101005829.703   103640752.846   102323296.071          45.200          47.800          48.900          52.000  
E04  24308274.797    24308278.969    24308276.535    24308279.109   127740844.228    95390905.587    97879353.492    96635136.840          48.900          49.800          51.700          54.200  
J02  19456897.563    19456894.445    19456907.047    19456906.293   204493337.871   204493399.896   159345505.032   152706122.003          46.900          48.300                          51.400  
J03  18922861.375    18922858.125    18922873.785    18922874.336   198880656.032   198880651.884   154971938.708   148514795.505          41.000          41.400                          45.100  
J01  18519177.648    18519176.117    18519187.453    18519187.574   194637870.560   194637908.935   151665901.551   145346498.063          43.100          42.600                          47.200  
J07  18559833.664    18559828.059    18559842.652    18559843.004   195065117.084   195065201.989   151998856.984   145665557.304          40.600          45.700                          49.800  
> 2021 12 14 06 41 50.0000000  0 34
G25  23463957.852    23463968.383    23463968.656    23463967.141   123303907.882    96081023.727    96081017.729    92077640.964          39.700          30.200          44.100          45.800  
G26  20524654.727    20524665.121    20524665.398    20524662.563   107857760.523    84045076.215    84045066.226    80543158.802          47.400          51.100          47.500          51.200  
G32  21051189.508    21051198.496    21051199.125    21051196.086   110624720.731    86201138.802    86201129.799    82609412.679          49.300          53.400          48.800          50.500  
G31  20828393.008    20828399.266    20828399.813                   109453926.003    85288815.729    85288819.726                          47.100          50.400          46.900                  
G03  23518627.367    23518636.418    23518637.102    23518635.848   123591187.401    96304885.188    96304881.168    92292174.012          40.900          38.800          41.300          45.600  
G29  23356369.328    23356377.434    23356377.660                   122738531.283    95640466.401    95640467.408                          41.500          31.500          41.100                  
G16  23361122.961    23361131.230                                   122763541.516    95659942.360                                          40.000          24.100                                  
R07  20559750.883    20559749.859    20559757.191   110057956.122   110057952.130    85600475.059          49.300          47.500          44.300  
R08  19439610.078    19439608.809    19439613.871   104098223.537   104098221.559    80965415.798          48.700          46.500          46.200  
R01  22049977.055    22049976.387    22049984.629   117869772.841   117869773.852    91676516.493          42.500          41.300          36.400  
R09  22395603.539    22395602.617    22395607.984   119591231.545   119591264.555    93015209.857          47.000          45.400          41.500  
R10  19939288.594    19939286.535                   106287589.073   106287620.071                          49.400          47.700                  
C21  25213779.711                   131294760.368                          42.000                  
C16  36184976.680    36184976.832   188424672.729   145701895.752          48.500          47.300  
C14  22178404.438    22178401.797   115488778.154    89303296.511          45.500          50.000  
C10  38320875.570    38320873.648   199546857.689   154302285.210          39.500          41.800  
C09  36858549.063    36858545.656   191932140.047   148414095.367          45.700          47.300  
C07  37290056.367    37290051.238   194179109.786   150151604.773          43.200          45.000  
C05  39726677.352    39726674.676   206867238.626   159962859.797          35.500          38.700  
C04  38609454.086    38609450.164   201049555.949   155464256.869          38.100          42.700  
C03  37065959.891    37065955.656   193012173.049   149249242.535          40.900          44.600  
C02  37784306.008    37784300.852   196752799.105   152141723.633          36.700          43.300  
C01  37864981.094    37864979.645   197172897.984   152466581.718          40.900          44.500  
C24  22768701.133                   118562613.816                          48.200                  
C26  22198732.273                   115594631.179                          48.800                  
C06  35975530.555    35975524.621   187334027.331   144858528.501          45.800          47.500  
E24  25935137.461    25935142.895    25935139.824    25935142.578   136290071.327   101775078.047   104430067.297   103102578.966          44.100          44.500          46.000          48.800  
E09  22259880.281    22259885.176    22259882.402    22259885.074   116976459.108    87352569.980    89631321.105    88491948.341          48.400          50.300          50.300          54.300  
E01  25742631.383    25742636.434    25742633.660    25742636.461   135278438.736   101019633.494   103654916.739   102337279.916          45.500          47.600          49.000          51.800  
E04  24310170.695    24310174.801    24310172.273    24310174.906   127750806.631    95398345.044    97886987.020    96642673.330          48.500          50.000          51.200          54.000  
J02  19457083.000    19457079.648    19457092.410    19457091.645   204495286.181   204495348.214   159347023.201   152707576.909          47.000          48.300                          51.600  
J03  18922164.734    18922162.043    18922178.082    18922178.359   198873338.402   198873334.262   154966236.688   148509331.077          40.400          41.100                          45.800  
J01  18518455.211    18518453.523    18518464.270    18518464.605   194630274.618   194630312.986   151659982.637   145340825.768          43.100          42.600                          47.200  
J07  18559435.680    18559430.063    18559444.969    18559445.012   195060934.438   195061019.344   151995597.781   145662433.904          40.500          46.000                          49.200  
> 2021 12 14 06 42  0.0000000  0 34
G25  23469760.945    23469771.758    23469771.848    23469770.371   123334404.321    96104787.164    96104781.174    92100414.264          39.300          30.100          43.700          45.800  
G26  20521049.492    20521059.719    20521059.871    20521057.246   107838814.435    84030313.040    84030303.051    80529010.763          47.200          51.100          47.400          50.800  
G32  21053468.477    21053477.777    21053478.324    21053475.332   110636698.231    86210471.909    86210462.907    82618356.903          49.300          53.400          48.800          50.700  
G31  20828407.969    20828414.445    20828415.043                   109454005.869    85288877.963    85288881.967                          47.400          50.300          46.700                  
G03  23515015.875    23515025.543    23515026.582    23515025.012   123572212.375    96290099.438    96290095.449    92278004.344          40.500          36.900          40.900          45.200  
G29  23354777.508    23354785.602    23354785.988                   122730166.902    95633948.704    95633949.709                          42.800          31.900          41.000                  
G16  23353470.242    23353478.816                                   122723327.072    95628606.460                                          40.400          24.700                                  
R07  20564821.680    20564821.000    20564828.066   110085101.398   110085097.398    85621588.038          49.000          47.500          44.200  
R08  19437544.484    19437542.785    19437547.980   104087160.761   104087158.783    80956811.421          48.300          46.700          45.900  
R01  22042387.906    22042386.117    22042394.281   117829200.780   117829201.767    91644960.456          43.200          41.600          37.100  
R09  22400619.523    22400618.430    22400623.840   119618015.199   119618048.204    93036041.586          46.600          45.000          42.200  
R10  19940905.195    19940903.289                   106296208.673   106296239.683                          49.900          47.900                  
C21  25219308.148                   131323548.083                          41.500                  
C16  36183480.648    36183480.895   188416882.969   145695872.213          47.900          47.800  
C14  22177266.820    22177263.770   115482851.860    89298713.933          46.400          50.600  
C10  38318089.930    38318088.383   199532354.221   154291070.210          39.400          42.300  
C09  36856707.320    36856703.922   191922549.521   148406679.366          45.700          47.700  
C07  37287272.477    37287266.895   194164611.478   150140393.771          42.900          45.000  
C05  39725952.516    39725949.699   206863464.062   159959941.073          34.800          38.100  
C04  38608646.547    38608642.406   201045349.744   155461004.361          38.300          43.100  
C03  37065195.156    37065191.113   193008193.115   149246165.007          40.800          44.300  
C02  37783547.469    37783542.504   196748850.347   152138670.193          36.400          42.700  
C01  37864197.469    37864196.012   197168816.141   152463425.381          40.900          44.500  
C24  22766353.758                   118550390.604                          48.700                  
C26  22200415.992                   115603399.073                          49.100                  
C06  35973943.898    35973938.176   187325766.460   144852140.667          46.000          47.600  
E24  25930401.695    25930406.730    25930403.578    25930406.410   136265182.454   101756492.210   104410996.614   103083750.713          44.300          44.300          46.500          49.100  
E09  22256684.125    22256689.117    22256686.324    22256688.945   116959663.536    87340027.839    89618451.772    88479242.604          48.900          49.900          51.400          54.000  
E01  25746150.656    25746155.313    25746152.641    25746155.391   135296930.764   101033442.470   103669085.952   102351269.008          45.800          47.200          49.000          51.500  
E04  24312072.219    24312076.375    24312073.906    24312076.496   127760799.462    95405807.218    97894643.863    96650232.839          48.800          50.000          51.100          53.600  
J02  19457267.516    19457264.664    19457277.441    19457276.559   204497227.777   204497289.811   159348536.132   152709026.808          46.900          48.300                          51.600  
J03  18921468.328    18921464.918    18921480.781    18921481.324   198866015.693   198866011.545   154960530.713   148503862.856          40.300          40.800                          45.200  
J01  18517733.102    18517730.973    18517742.230    18517742.344   194622684.796   194622723.171   151654068.493   145335158.041          43.000          42.300                          46.700  
J07  18559037.219    18559031.910    18559046.582    18559046.813   195056747.775   195056832.681   151992335.455   145659307.507          39.500          46.100                          49.500  
